tree_id,year,tree_dbh,health,spc_latin,spc_common,root_stone,root_grate,root_other,trunk_wire,address,zipcode,boro_name,longitude,latitude,block_code,sidewalk
417602,2015,17.0,Dead,PYRUS CALLERYANA,CALLERY PEAR,No,No,No,No,"160-032 21 AVENUE, Whitestone",11357,Queens,-73.80212577,40.7788455,TEST-11357,
433760,2015,2.0,Dead,PYRUS CALLERYANA,CALLERY PEAR,No,No,No,No,"126 MONTAUK AVENUE, Brooklyn",11208,Brooklyn,-73.87855736,40.67635278,TEST-11208,
450225,2015,3.0,Dead,PYRUS CALLERYANA,CALLERY PEAR,No,No,No,No,"186 EAST 161 STREET, Bronx",10451,Bronx,-73.92153814,40.82632429,TEST-10451,
434681,2015,13.0,Dead,GLEDITSIA TRIACANTHOS ,HONEYLOCUST,No,No,No,No,"138-015 HOOVER AVENUE, Jamaica",11435,Queens,-73.82034169,40.71428724,TEST-11435,
449336,2015,2.0,Dead,ACER PLATANOIDES,NORWAY MAPLE,No,No,No,No,"669 SHEPHERD AVENUE, Brooklyn",11208,Brooklyn,-73.87904192,40.66770934,TEST-11208,
422176,2015,4.0,Dead,ULMUS AMERICANA,AMERICAN ELM,No,No,No,No,"814 MILLER AVENUE, Brooklyn",11207,Brooklyn,-73.88684103,40.66059402,TEST-11207,
435930,2015,4.0,Dead,PLATANUS X ACERIFOLIA,LONDON PLANETREE,No,No,No,No,"835 HENDRIX STREET, Brooklyn",11207,Brooklyn,-73.88460468,40.66091787,TEST-11207,
437509,2015,2.0,Dead,QUERCUS PALUSTRIS,PIN OAK,No,No,No,No,"38-031 CEDAR LANE, Little Neck",11363,Queens,-73.75039239,40.77210015,TEST-11363,
434038,2015,16.0,Dead,PLATANUS X ACERIFOLIA,LONDON PLANETREE,No,No,No,No,"10578 AVENUE L, Brooklyn",11236,Brooklyn,-73.88718845,40.64380698,TEST-11236,
453889,2015,2.0,Dead,UNKNOWN,UNKNOWN,No,No,No,No,"51-024 BEACH CHANNEL DRIVE, Far Rockaway",11691,Queens,-73.78258931,40.5952904,TEST-11691,
436723,2015,2.0,Dead,UNKNOWN,UNKNOWN,No,No,No,No,"864 STANLEY AVENUE, Brooklyn",11208,Brooklyn,-73.87770196,40.66278395,TEST-11208,
445490,2015,0.0,Dead,UNKNOWN,UNKNOWN,No,No,No,No,"719 LACONIA AVENUE, Staten Island",10306,Staten Island,-74.09715363,40.57864529,TEST-10306,Unknown
429614,2015,0.0,Dead,UNKNOWN,UNKNOWN,No,No,No,No,"38-030 WEST DRIVE, Little Neck",11363,Queens,-73.7512487,40.77186452,TEST-11363,Unknown
446783,2015,6.0,Dead,ZELKOVA SERRATA,JAPANESE ZELKOVA,No,No,No,No,"896 FOX STREET, Bronx",10459,Bronx,-73.89415841,40.81950143,TEST-10459,
431175,2015,4.0,Dead,UNKNOWN,UNKNOWN,No,No,No,No,"300 BARBEY STREET, Brooklyn",11207,Brooklyn,-73.88817221,40.67550951,TEST-11207,
436641,2015,5.0,Dead,QUERCUS PALUSTRIS,PIN OAK,No,No,No,No,"269 ESSEX STREET, Brooklyn",11208,Brooklyn,-73.88253201,40.6775348,TEST-11208,
437098,2015,2.0,Dead,QUERCUS PALUSTRIS,PIN OAK,No,No,No,No,"358 WORTMAN AVENUE, Brooklyn",11207,Brooklyn,-73.88014902,40.65883417,TEST-11207,
455300,2015,0.0,Dead,UNKNOWN,UNKNOWN,No,No,No,No,"29-029 WESTBOURNE AVENUE, Far Rockaway",11691,Queens,-73.76817393,40.60891642,TEST-11691,Unknown
430739,2015,21.0,Dead,UNKNOWN,UNKNOWN,No,No,No,No,"19 HASTINGS STREET, Staten Island",10305,Staten Island,-74.06681134,40.60080707,TEST-10305,
432865,2015,0.0,Dead,UNKNOWN,UNKNOWN,No,No,No,No,"1888 ARTHUR AVENUE, Bronx",10457,Bronx,-73.89369394,40.84523173,TEST-10457,Unknown
429179,2015,4.0,Dead,PRUNUS SEROTINA,BLACK CHERRY,No,No,No,No,"299 ASHFORD STREET, Brooklyn",11207,Brooklyn,-73.88539608,40.67515373,TEST-11207,
429579,2015,2.0,Dead,TILIA AMERICANA,AMERICAN LINDEN,No,No,No,No,"2931 PITKIN AVENUE, Brooklyn",11208,Brooklyn,-73.86396302,40.67653966,TEST-11208,
427586,2015,4.0,Dead,PRUNUS,CHERRY,No,No,No,No,"1140 WORTHEN STREET, Bronx",10474,Bronx,-73.89334599,40.81353113,TEST-10474,
415280,2015,2.0,Dead,UNKNOWN,UNKNOWN,No,No,No,No,"898 BRYANT AVENUE, Bronx",10474,Bronx,-73.8868699,40.81990765,TEST-10474,
452396,2015,5.0,Dead,QUERCUS PALUSTRIS,PIN OAK,No,No,No,No,"315 EAST 161 STREET, Bronx",10451,Bronx,-73.91699706,40.8251964,TEST-10451,
441402,2015,2.0,Dead,PRUNUS,CHERRY,No,No,No,No,"901 ELSMERE PLACE, Bronx",10460,Bronx,-73.88504023,40.84148213,TEST-10460,
432437,2015,14.0,Dead,PHELLODENDRON AMURENSE,AMUR CORK TREE,No,No,No,No,"848 GLENMORE AVENUE, Brooklyn",11208,Brooklyn,-73.87896941,40.67564287,TEST-11208,
450198,2015,2.0,Dead,GLEDITSIA TRIACANTHOS ,HONEYLOCUST,No,No,No,No,"763 ATKINS AVENUE, Brooklyn",11208,Brooklyn,-73.87052927,40.6596848,TEST-11208,
449949,2015,11.0,Dead,GLEDITSIA TRIACANTHOS ,HONEYLOCUST,No,No,No,No,"31-010 THOMSON AVENUE, Long Island City",11101,Queens,-73.93518062,40.74483591,TEST-11101,
450223,2015,3.0,Dead,PRUNUS,CHERRY,No,No,No,No,"184 EAST 161 STREET, Bronx",10451,Bronx,-73.92181285,40.82641151,TEST-10451,
434680,2015,13.0,Dead,PRUNUS CERASIFERA,PURPLE-LEAF PLUM,No,No,No,No,"138-015 HOOVER AVENUE, Jamaica",11435,Queens,-73.8202873,40.71430194,TEST-11435,
452404,2015,3.0,Dead,PRUNUS,CHERRY,No,No,No,No,"283 EAST 161 STREET, Bronx",10451,Bronx,-73.9178228,40.82545935,TEST-10451,
435341,2015,2.0,Dead,SYRINGA RETICULATA,JAPANESE TREE LILAC,No,No,No,No,"931 STANLEY AVENUE, Brooklyn",11208,Brooklyn,-73.87536907,40.66310372,TEST-11208,
449633,2015,11.0,Dead,PLATANUS X ACERIFOLIA,LONDON PLANETREE,No,No,No,No,"1239 REV JAMES POLITE AVENUE, Bronx",10459,Bronx,-73.896721,40.82847291,TEST-10459,
453986,2015,2.0,Dead,QUERCUS PALUSTRIS,PIN OAK,No,No,No,No,"171 VAN BRUNT STREET, Brooklyn",11231,Brooklyn,-74.00678092,40.68247297,TEST-11231,
449951,2015,10.0,Dead,TILIA CORDATA,LITTLELEAF LINDEN,No,No,No,No,"31-010 THOMSON AVENUE, Long Island City",11101,Queens,-73.93500965,40.74481471,TEST-11101,
434750,2015,8.0,Dead,TILIA CORDATA,LITTLELEAF LINDEN,No,No,No,No,"1100 EAST 180 STREET, Bronx",10462,Bronx,-73.87629652,40.84219783,TEST-10462,
431128,2015,2.0,Dead,FRAXINUS PENNSYLVANICA,GREEN ASH,No,No,No,No,"779 EAST 178 STREET, Bronx",10460,Bronx,-73.88759337,40.84490121,TEST-10460,
424533,2015,15.0,Dead,ACER SACCHARINUM,SILVER MAPLE,No,No,No,No,"85-004 163 AVENUE, Howard Beach",11414,Queens,-73.84558601,40.65168074,TEST-11414,
435083,2015,2.0,Dead,ULMUS AMERICANA,AMERICAN ELM,No,No,No,No,"418 BLAKE AVENUE, Brooklyn",11212,Brooklyn,-73.903808,40.66640429,TEST-11212,
435084,2015,2.0,Dead,PLATANUS X ACERIFOLIA,LONDON PLANETREE,No,No,No,No,"418 BLAKE AVENUE, Brooklyn",11212,Brooklyn,-73.9038717,40.66639486,TEST-11212,
432953,2015,3.0,Dead,FRAXINUS PENNSYLVANICA,GREEN ASH,No,No,No,No,"170 MAJOR AVENUE, Staten Island",10305,Staten Island,-74.06812196,40.59896859,TEST-10305,
452773,2015,4.0,Dead,KOELREUTERIA PANICULATA,GOLDEN RAINTREE,No,No,No,No,"305 EAST 158 STREET, Bronx",10451,Bronx,-73.91760325,40.82304866,TEST-10451,
454458,2015,3.0,Dead,KOELREUTERIA PANICULATA,GOLDEN RAINTREE,No,No,No,No,"326 VAN BRUNT STREET, Brooklyn",11231,Brooklyn,-74.01131334,40.6787876,TEST-11231,
432017,2015,4.0,Dead,PRUNUS CERASIFERA,PURPLE-LEAF PLUM,No,No,No,No,"10203 AVENUE D, Brooklyn",11236,Brooklyn,-73.90282281,40.65287917,TEST-11236,
453962,2015,8.0,Dead,KOELREUTERIA PANICULATA,GOLDEN RAINTREE,No,No,No,No,"311 BEACH 53 STREET, Far Rockaway",11691,Queens,-73.78349552,40.59328589,TEST-11691,
452376,2015,4.0,Dead,KOELREUTERIA PANICULATA,GOLDEN RAINTREE,No,No,No,No,"983 TELLER AVENUE, Bronx",10456,Bronx,-73.9149066,40.82754448,TEST-10456,
434631,2015,3.0,Dead,ACER SACCHARUM,SUGAR MAPLE,No,No,No,No,"889 GLENMORE AVENUE, Brooklyn",11208,Brooklyn,-73.8771499,40.67600383,TEST-11208,
452512,2015,7.0,Dead,ULMUS PUMILA,SIBERIAN ELM,No,No,No,No,"274 BONNER PLACE, Bronx",10456,Bronx,-73.91698267,40.82776674,TEST-10456,
435400,2015,20.0,Dead,ULMUS PUMILA,SIBERIAN ELM,No,No,No,No,"220 PARKINSON AVENUE, Staten Island",10305,Staten Island,-74.08164468,40.59575282,TEST-10305,
443756,2015,4.0,Dead,ULMUS PUMILA,SIBERIAN ELM,No,No,No,No,"564 WALTON AVENUE, Bronx",10451,Bronx,-73.92812596,40.81910808,TEST-10451,
444341,2015,2.0,Dead,STYPHNOLOBIUM JAPONICUM,SOPHORA,No,No,No,No,"833 SHEFFIELD AVENUE, Brooklyn",11207,Brooklyn,-73.89044203,40.65660157,TEST-11207,
446740,2015,3.0,Dead,PYRUS CALLERYANA,CALLERY PEAR,No,No,No,No,"506 EAST 52 STREET, Brooklyn",11203,Brooklyn,-73.92810389,40.64810465,TEST-11203,
433638,2015,4.0,Dead,PYRUS CALLERYANA,CALLERY PEAR,No,No,No,No,"216-010 77 AVENUE, Oakland Gardens",11364,Queens,-73.75593855,40.73724114,TEST-11364,
407062,2015,2.0,Dead,PYRUS CALLERYANA,CALLERY PEAR,No,No,No,No,"115 PITT STREET, New York",10002,Manhattan,-73.98181031,40.71963894,TEST-10002,
454079,2015,4.0,Dead,ULMUS PUMILA,SIBERIAN ELM,No,No,No,No,"53-001 BEACH CHANNEL DRIVE, Far Rockaway",11691,Queens,-73.78351918,40.59482631,TEST-11691,
417381,2015,2.0,Dead,PYRUS CALLERYANA,CALLERY PEAR,No,No,No,No,"33 PINE STREET, Brooklyn",11208,Brooklyn,-73.87378164,40.68594384,TEST-11208,
431685,2015,2.0,Dead,PYRUS CALLERYANA,CALLERY PEAR,No,No,No,No,"10571 FLATLANDS 6 STREET, Brooklyn",11236,Brooklyn,-73.8863259,40.64267262,TEST-11236,
432475,2015,11.0,Dead,PYRUS CALLERYANA,CALLERY PEAR,No,No,No,No,"70-001 63 AVENUE, Middle Village",11379,Queens,-73.88508512,40.71730641,TEST-11379,
450206,2015,2.0,Dead,STYPHNOLOBIUM JAPONICUM,SOPHORA,No,No,No,No,"947 CRESCENT STREET, Brooklyn",11208,Brooklyn,-73.86716435,40.66430035,TEST-11208,
427727,2015,5.0,Dead,STYPHNOLOBIUM JAPONICUM,SOPHORA,No,No,No,No,"2874 WEST 35 STREET, Brooklyn",11224,Brooklyn,-74.00083872,40.57539202,TEST-11224,
428090,2015,2.0,Dead,STYPHNOLOBIUM JAPONICUM,SOPHORA,No,No,No,No,"1879 CLINTON AVENUE, Bronx",10457,Bronx,-73.89119058,40.8436955,TEST-10457,
434578,2015,12.0,Dead,LIQUIDAMBAR STYRACIFLUA,SWEETGUM,No,No,No,No,"75 BRIARCLIFF ROAD, Staten Island",10305,Staten Island,-74.07644598,40.59844878,TEST-10305,
435340,2015,2.0,Dead,QUERCUS COCCINEA,SCARLET OAK,No,No,No,No,"918 STANLEY AVENUE, Brooklyn",11208,Brooklyn,-73.87521947,40.66316882,TEST-11208,
454176,2015,10.0,Dead,GLEDITSIA TRIACANTHOS ,HONEYLOCUST,No,No,No,No,"28-019 MOTT AVENUE, Far Rockaway",11691,Queens,-73.76572428,40.60912105,TEST-11691,
454074,2015,2.0,Dead,GINKGO BILOBA,GINKGO,No,No,No,No,"360 BEACH 53 STREET, Far Rockaway",11691,Queens,-73.78345013,40.59411461,TEST-11691,
450532,2015,3.0,Dead,GLEDITSIA TRIACANTHOS ,HONEYLOCUST,No,No,No,No,"30-000 47 AVENUE, Long Island City",11101,Queens,-73.93741916,40.74319811,TEST-11101,
445111,2015,2.0,Dead,QUERCUS IMBRICARIA,SHINGLE OAK,No,No,No,No,"2526 LINDEN BOULEVARD, Brooklyn",11208,Brooklyn,-73.87044057,40.66734528,TEST-11208,
449938,2015,9.0,Dead,TILIA CORDATA,LITTLELEAF LINDEN,No,No,No,No,"315 EAST 161 STREET, Bronx",10451,Bronx,-73.91701471,40.82500828,TEST-10451,
433660,2015,3.0,Dead,PYRUS CALLERYANA,CALLERY PEAR,No,No,No,No,"1833 MARMION AVENUE, Bronx",10460,Bronx,-73.88887271,40.84122522,TEST-10460,
432961,2015,3.0,Dead,FRAXINUS PENNSYLVANICA,GREEN ASH,No,No,No,No,"499 RIVERDALE AVENUE, Brooklyn",11207,Brooklyn,-73.89770236,40.66266981,TEST-11207,
435398,2015,23.0,Dead,FRAXINUS PENNSYLVANICA,GREEN ASH,No,No,No,No,"220 PARKINSON AVENUE, Staten Island",10305,Staten Island,-74.08185275,40.59564608,TEST-10305,
443757,2015,4.0,Dead,GINKGO BILOBA,GINKGO,No,No,No,No,"570 WALTON AVENUE, Bronx",10451,Bronx,-73.92806772,40.81934776,TEST-10451,
435143,2015,2.0,Dead,GLEDITSIA TRIACANTHOS ,HONEYLOCUST,No,No,No,No,"429 DUMONT AVENUE, Brooklyn",11212,Brooklyn,-73.9035099,40.66503952,TEST-11212,
425717,2015,2.0,Dead,PLATANUS X ACERIFOLIA,LONDON PLANETREE,No,No,No,No,"10801 FLATLANDS 8 STREET, Brooklyn",11236,Brooklyn,-73.88419165,40.64147883,TEST-11236,
428091,2015,2.0,Dead,PLATANUS X ACERIFOLIA,LONDON PLANETREE,No,No,No,No,"727 FAIRMOUNT PLACE, Bronx",10457,Bronx,-73.89113902,40.84375515,TEST-10457,
420033,2015,3.0,Dead,PRUNUS VIRGINIANA,'SCHUBERT' CHOKECHERRY,No,No,No,No,"1301 CLINTON AVENUE, Bronx",10456,Bronx,-73.90058042,40.83162777,TEST-10456,
434186,2015,3.0,Dead,JUNIPERUS VIRGINIANA,EASTERN REDCEDAR,No,No,No,No,"528 BARRETTO STREET, Bronx",10474,Bronx,-73.88833485,40.81087035,TEST-10474,
448347,2015,2.0,Dead,PRUNUS,CHERRY,No,No,No,No,"202 5 AVENUE, New York",10010,Manhattan,-73.9887393,40.7425072,TEST-10010,
432237,2015,3.0,Dead,GLEDITSIA TRIACANTHOS ,HONEYLOCUST,No,No,No,No,"1382 EAST 104 STREET, Brooklyn",11236,Brooklyn,-73.88656428,40.63878197,TEST-11236,
448564,2015,19.0,Dead,FRAXINUS PENNSYLVANICA,GREEN ASH,No,No,No,No,"137-023 170 STREET, Jamaica",11434,Queens,-73.77015134,40.67199174,TEST-11434,
435085,2015,3.0,Dead,GLEDITSIA TRIACANTHOS ,HONEYLOCUST,No,No,No,No,"374 BLAKE AVENUE, Brooklyn",11212,Brooklyn,-73.90506061,40.66621895,TEST-11212,
450758,2015,3.0,Dead,GLEDITSIA TRIACANTHOS ,HONEYLOCUST,No,No,No,No,"975 CRESCENT STREET, Brooklyn",11208,Brooklyn,-73.86694188,40.66340872,TEST-11208,
444342,2015,2.0,Dead,GLEDITSIA TRIACANTHOS ,HONEYLOCUST,No,No,No,No,"833 SHEFFIELD AVENUE, Brooklyn",11207,Brooklyn,-73.89051536,40.6565693,TEST-11207,
448558,2015,13.0,Dead,ACER SACCHARINUM,SILVER MAPLE,No,No,No,No,"137-045 170 STREET, Jamaica",11434,Queens,-73.77008304,40.67137361,TEST-11434,
455978,2015,3.0,Dead,ACER SACCHARINUM,SILVER MAPLE,No,No,No,No,"1217 FR CAPODANNO BOULEVARD, Staten Island",10306,Staten Island,-74.09251882,40.56857779,TEST-10306,
445582,2015,2.0,Dead,ACER SACCHARINUM,SILVER MAPLE,No,No,No,No,"840 ALABAMA AVENUE, Brooklyn",11207,Brooklyn,-73.89169168,40.65575276,TEST-11207,
432983,2015,7.0,Dead,PRUNUS,CHERRY,No,No,No,No,"611 CROTONA PARK NORTH, Bronx",10457,Bronx,-73.89546054,40.84402507,TEST-10457,
448880,2015,4.0,Dead,STYPHNOLOBIUM JAPONICUM,SOPHORA,No,No,No,No,"1050 SUMMIT AVENUE, Bronx",10452,Bronx,-73.92938647,40.83454377,TEST-10452,
432373,2015,7.0,Dead,PLATANUS X ACERIFOLIA,LONDON PLANETREE,No,No,No,No,"196 MERCER STREET, New York",10012,Manhattan,-73.99714828,40.72649189,TEST-10012,
449022,2015,6.0,Dead,CELTIS OCCIDENTALIS,COMMON HACKBERRY,No,No,No,No,"901 ANDERSON AVENUE, Bronx",10452,Bronx,-73.92848091,40.83046109,TEST-10452,
452394,2015,9.0,Dead,CORNUS FLORIDA,FLOWERING DOGWOOD,No,No,No,No,"965 COLLEGE AVENUE, Bronx",10456,Bronx,-73.91582381,40.82769843,TEST-10456,
450757,2015,4.0,Dead,STYPHNOLOBIUM JAPONICUM,SOPHORA,No,No,No,No,"973 CRESCENT STREET, Brooklyn",11208,Brooklyn,-73.86696089,40.66348587,TEST-11208,
454433,2015,2.0,Dead,STYPHNOLOBIUM JAPONICUM,SOPHORA,No,No,No,No,"690 HENDRIX STREET, Brooklyn",11207,Brooklyn,-73.88736898,40.66463141,TEST-11207,
452448,2015,2.0,Dead,STYPHNOLOBIUM JAPONICUM,SOPHORA,No,No,No,No,"4812 BEVERLY ROAD, Brooklyn",11203,Brooklyn,-73.93132601,40.64614847,TEST-11203,
458520,2015,4.0,Dead,LIQUIDAMBAR STYRACIFLUA,SWEETGUM,No,No,No,No,"3103 3 AVENUE, Bronx",10451,Bronx,-73.91212998,40.82172504,TEST-10451,
435385,2015,2.0,Dead,GLEDITSIA TRIACANTHOS ,HONEYLOCUST,No,No,No,No,"463 CHESTNUT STREET, Brooklyn",11208,Brooklyn,-73.87349087,40.67569545,TEST-11208,
445581,2015,2.0,Dead,GLEDITSIA TRIACANTHOS ,HONEYLOCUST,No,No,No,No,"840 ALABAMA AVENUE, Brooklyn",11207,Brooklyn,-73.89173668,40.65581347,TEST-11207,
438379,2015,3.0,Dead,TILIA AMERICANA,AMERICAN LINDEN,No,No,No,No,"864 STANLEY AVENUE, Brooklyn",11208,Brooklyn,-73.87729516,40.662107,TEST-11208,
443634,2015,4.0,Dead,PYRUS CALLERYANA,CALLERY PEAR,No,No,No,No,"292 WILLIS AVENUE, Bronx",10454,Bronx,-73.92190769,40.81025179,TEST-10454,
408958,2015,3.0,Dead,STYPHNOLOBIUM JAPONICUM,SOPHORA,No,No,No,No,"1247 WILLOUGHBY AVENUE, Brooklyn",11237,Brooklyn,-73.92243643,40.70469596,TEST-11237,
454139,2015,3.0,Dead,STYPHNOLOBIUM JAPONICUM,SOPHORA,No,No,No,No,"658 SNEDIKER AVENUE, Brooklyn",11207,Brooklyn,-73.89830081,40.65858877,TEST-11207,
446183,2015,2.0,Dead,STYPHNOLOBIUM JAPONICUM,SOPHORA,No,No,No,No,"125 COZINE AVENUE, Brooklyn",11207,Brooklyn,-73.88702905,40.6543493,TEST-11207,
448555,2015,15.0,Dead,STYPHNOLOBIUM JAPONICUM,SOPHORA,No,No,No,No,"170-001 140 AVENUE, Jamaica",11434,Queens,-73.77005161,40.67108915,TEST-11434,
429335,2015,1.0,Dead,GLEDITSIA TRIACANTHOS ,HONEYLOCUST,No,No,No,No,"541 COSTER STREET, Bronx",10474,Bronx,-73.88677113,40.81166806,TEST-10474,
451545,2015,2.0,Dead,STYPHNOLOBIUM JAPONICUM,SOPHORA,No,No,No,No,"377 GRANT AVENUE, Brooklyn",11208,Brooklyn,-73.86684039,40.68161964,TEST-11208,
444122,2015,5.0,Dead,GLEDITSIA TRIACANTHOS ,HONEYLOCUST,No,No,No,No,"399 EAST 138 STREET, Bronx",10454,Bronx,-73.92242378,40.80898986,TEST-10454,
449848,2015,5.0,Dead,GLEDITSIA TRIACANTHOS ,HONEYLOCUST,No,No,No,No,"1236 PROSPECT AVENUE, Bronx",10459,Bronx,-73.8981814,40.8276397,TEST-10459,
443632,2015,4.0,Dead,GLEDITSIA TRIACANTHOS ,HONEYLOCUST,No,No,No,No,"290 WILLIS AVENUE, Bronx",10454,Bronx,-73.9220305,40.81008321,TEST-10454,
454160,2015,2.0,Dead,STYPHNOLOBIUM JAPONICUM,SOPHORA,No,No,No,No,"49-002 BEACH CHANNEL DRIVE, Far Rockaway",11691,Queens,-73.78111889,40.5952238,TEST-11691,
448961,2015,4.0,Dead,GLEDITSIA TRIACANTHOS ,HONEYLOCUST,No,No,No,No,"939 WOODYCREST AVENUE, Bronx",10452,Bronx,-73.92946578,40.83063021,TEST-10452,
444165,2015,5.0,Dead,TILIA TOMENTOSA,SILVER LINDEN,No,No,No,No,"151 EAST 151 STREET, Bronx",10451,Bronx,-73.92742287,40.82142083,TEST-10451,
454076,2015,3.0,Dead,PYRUS CALLERYANA,CALLERY PEAR,No,No,No,No,"360 BEACH 53 STREET, Far Rockaway",11691,Queens,-73.78347748,40.59439655,TEST-11691,
450465,2015,2.0,Dead,PYRUS CALLERYANA,CALLERY PEAR,No,No,No,No,"792 CONCOURSE VILLAGE WEST, Bronx",10451,Bronx,-73.92230485,40.82478972,TEST-10451,
435339,2015,2.0,Dead,STYPHNOLOBIUM JAPONICUM,SOPHORA,No,No,No,No,"672 PINE STREET, Brooklyn",11208,Brooklyn,-73.86939795,40.66884627,TEST-11208,
443631,2015,4.0,Dead,LIQUIDAMBAR STYRACIFLUA,SWEETGUM,No,No,No,No,"288 WILLIS AVENUE, Bronx",10454,Bronx,-73.92208193,40.81001261,TEST-10454,
448960,2015,6.0,Dead,QUERCUS ALBA,WHITE OAK,No,No,No,No,"936 WOODYCREST AVENUE, Bronx",10452,Bronx,-73.92935617,40.83077229,TEST-10452,
443746,2015,9.0,Dead,STYPHNOLOBIUM JAPONICUM,SOPHORA,No,No,No,No,"548 NAUGHTON AVENUE, Staten Island",10305,Staten Island,-74.08668675,40.57976973,TEST-10305,
434983,2015,4.0,Dead,LIQUIDAMBAR STYRACIFLUA,SWEETGUM,No,No,No,No,"1826 PROSPECT AVENUE, Bronx",10460,Bronx,-73.89068277,40.84239663,TEST-10460,
415727,2015,2.0,Dead,STYPHNOLOBIUM JAPONICUM,SOPHORA,No,No,No,No,"376 MILFORD STREET, Brooklyn",11208,Brooklyn,-73.87597153,40.66978378,TEST-11208,
457052,2015,2.0,Dead,STYPHNOLOBIUM JAPONICUM,SOPHORA,No,No,No,No,"46-045 METROPOLITAN AVENUE, Ridgewood",11385,Queens,-73.92211526,40.71383134,TEST-11385,
443629,2015,4.0,Dead,MORUS,MULBERRY,No,No,No,No,"286 WILLIS AVENUE, Bronx",10454,Bronx,-73.92216591,40.80989735,TEST-10454,
430439,2015,10.0,Dead,QUERCUS ALBA,WHITE OAK,No,No,No,No,"554 LIBERTY AVENUE, Brooklyn",11207,Brooklyn,-73.8893105,40.67540149,TEST-11207,
446726,2015,4.0,Dead,STYPHNOLOBIUM JAPONICUM,SOPHORA,No,No,No,No,"923 BARRETTO STREET, Bronx",10459,Bronx,-73.8933799,40.81948312,TEST-10459,
435394,2015,5.0,Dead,STYPHNOLOBIUM JAPONICUM,SOPHORA,No,No,No,No,"2105 MOHEGAN AVENUE, Bronx",10460,Bronx,-73.88330755,40.84577715,TEST-10460,
449942,2015,4.0,Dead,STYPHNOLOBIUM JAPONICUM,SOPHORA,No,No,No,No,"283 EAST 161 STREET, Bronx",10451,Bronx,-73.91775896,40.82524567,TEST-10451,
427548,2015,16.0,Dead,STYPHNOLOBIUM JAPONICUM,SOPHORA,No,No,No,No,"137-060 234 STREET, Rosedale",11422,Queens,-73.73914112,40.66975558,TEST-11422,
457053,2015,2.0,Dead,PYRUS CALLERYANA,CALLERY PEAR,No,No,No,No,"46-045 METROPOLITAN AVENUE, Ridgewood",11385,Queens,-73.9222084,40.71383693,TEST-11385,
432989,2015,2.0,Dead,TILIA TOMENTOSA,SILVER LINDEN,No,No,No,No,"4109 3 AVENUE, Bronx",10457,Bronx,-73.89704004,40.84417235,TEST-10457,
434182,2015,4.0,Dead,TILIA TOMENTOSA,SILVER LINDEN,No,No,No,No,"550 BARRETTO STREET, Bronx",10474,Bronx,-73.88851408,40.81155687,TEST-10474,
454400,2015,3.0,Dead,PYRUS CALLERYANA,CALLERY PEAR,No,No,No,No,"321 EAST 153 STREET, Bronx",10451,Bronx,-73.91955361,40.81979205,TEST-10451,
434984,2015,4.0,Dead,CERCIS CANADENSIS,EASTERN REDBUD,No,No,No,No,"1826 PROSPECT AVENUE, Bronx",10460,Bronx,-73.89073536,40.84234564,TEST-10460,
425349,2015,2.0,Dead,ACER PLATANOIDES,NORWAY MAPLE,No,No,No,No,"262 ELDERT LANE, Brooklyn",11208,Brooklyn,-73.86659494,40.68465581,TEST-11208,
443633,2015,3.0,Dead,ACER PLATANOIDES,NORWAY MAPLE,No,No,No,No,"292 WILLIS AVENUE, Bronx",10454,Bronx,-73.92196332,40.81017543,TEST-10454,
445884,2015,2.0,Dead,ACER PLATANOIDES,NORWAY MAPLE,No,No,No,No,"2635 LINDEN BOULEVARD, Brooklyn",11208,Brooklyn,-73.86762587,40.66937086,TEST-11208,
433162,2015,2.0,Dead,LIQUIDAMBAR STYRACIFLUA,SWEETGUM,No,No,No,No,"486 WILLIAMS AVENUE, Brooklyn",11207,Brooklyn,-73.89762896,40.66394476,TEST-11207,
454518,2015,2.0,Dead,STYPHNOLOBIUM JAPONICUM,SOPHORA,No,No,No,No,"49 DELEVAN STREET, Brooklyn",11231,Brooklyn,-74.00813249,40.6797371,TEST-11231,
450659,2015,3.0,Dead,STYPHNOLOBIUM JAPONICUM,SOPHORA,No,No,No,No,"335 LINCOLN AVENUE, Brooklyn",11208,Brooklyn,-73.86869906,40.68175174,TEST-11208,
450755,2015,4.0,Dead,MORUS,MULBERRY,No,No,No,No,"971 CRESCENT STREET, Brooklyn",11208,Brooklyn,-73.86697818,40.66355601,TEST-11208,
452302,2015,4.0,Dead,PYRUS CALLERYANA,CALLERY PEAR,No,No,No,No,"280 EAST 162 STREET, Bronx",10451,Bronx,-73.91745858,40.82630305,TEST-10451,
436179,2015,4.0,Dead,PYRUS CALLERYANA,CALLERY PEAR,No,No,No,No,"804 ASHFORD STREET, Brooklyn",11207,Brooklyn,-73.88094518,40.66249485,TEST-11207,
432917,2015,4.0,Dead,PYRUS CALLERYANA,CALLERY PEAR,No,No,No,No,"54 COURSEN PLACE, Staten Island",10304,Staten Island,-74.07906591,40.61986931,TEST-10304,
427547,2015,16.0,Dead,TILIA AMERICANA,AMERICAN LINDEN,No,No,No,No,"137-034 234 STREET, Rosedale",11422,Queens,-73.73877548,40.67034351,TEST-11422,
378229,2015,4.0,Dead,QUERCUS ACUTISSIMA,SAWTOOTH OAK,No,No,No,No,"47 LISA LANE, Staten Island",10312,Staten Island,-74.19698896,40.54945773,TEST-10312,
448565,2015,20.0,Dead,ACER RUBRUM,RED MAPLE,No,No,No,No,"137-019 170 STREET, Jamaica",11434,Queens,-73.77016222,40.67209021,TEST-11434,
433123,2015,2.0,Dead,ACER SACCHARUM,SUGAR MAPLE,No,No,No,No,"1950 PROSPECT AVENUE, Bronx",10457,Bronx,-73.88923937,40.84421986,TEST-10457,
437769,2015,6.0,Dead,PRUNUS CERASIFERA,PURPLE-LEAF PLUM,No,No,No,No,"465 BROOK AVENUE, Bronx",10455,Bronx,-73.91624622,40.81285909,TEST-10455,
454356,2015,3.0,Dead,PRUNUS CERASIFERA,PURPLE-LEAF PLUM,No,No,No,No,"35 LOUISIANA AVENUE, Brooklyn",11207,Brooklyn,-73.89586081,40.65825289,TEST-11207,
444919,2015,4.0,Dead,PLATANUS X ACERIFOLIA,LONDON PLANETREE,No,No,No,No,"60 EAST 162 STREET, Bronx",10452,Bronx,-73.92484736,40.82896368,TEST-10452,
426818,2015,20.0,Dead,ACER PLATANOIDES,NORWAY MAPLE,No,No,No,No,"261 HEMLOCK STREET, Brooklyn",11208,Brooklyn,-73.87099174,40.68337084,TEST-11208,
448783,2015,2.0,Dead,ACER PLATANOIDES,NORWAY MAPLE,No,No,No,No,"1034 OGDEN AVENUE, Bronx",10452,Bronx,-73.92867269,40.83401949,TEST-10452,
448031,2015,3.0,Dead,ACER,MAPLE,No,No,No,No,"1057 HOE AVENUE, Bronx",10459,Bronx,-73.89063349,40.82490621,TEST-10459,
443142,2015,4.0,Dead,TILIA TOMENTOSA,SILVER LINDEN,No,No,No,No,"418 ADAMS AVENUE, Staten Island",10306,Staten Island,-74.09499145,40.57741699,TEST-10306,
452769,2015,3.0,Dead,PYRUS CALLERYANA,CALLERY PEAR,No,No,No,No,"299 EAST 158 STREET, Bronx",10451,Bronx,-73.918233,40.82324207,TEST-10451,
433163,2015,2.0,Dead,OSTRYA VIRGINIANA,AMERICAN HOPHORNBEAM,No,No,No,No,"489 WILLIAMS AVENUE, Brooklyn",11207,Brooklyn,-73.89760481,40.66384963,TEST-11207,
448963,2015,4.0,Dead,PRUNUS,CHERRY,No,No,No,No,"901 WOODYCREST AVENUE, Bronx",10452,Bronx,-73.92961851,40.83043223,TEST-10452,
449144,2015,6.0,Dead,QUERCUS PALUSTRIS,PIN OAK,No,No,No,No,"983 OGDEN AVENUE, Bronx",10452,Bronx,-73.92978516,40.83235467,TEST-10452,
446262,2015,3.0,Dead,QUERCUS PALUSTRIS,PIN OAK,No,No,No,No,"402 BEACH 36 STREET, Far Rockaway",11691,Queens,-73.76835447,40.59630564,TEST-11691,
442892,2015,10.0,Dead,PLATANUS X ACERIFOLIA,LONDON PLANETREE,No,No,No,No,"1076 FOX STREET, Bronx",10459,Bronx,-73.8938014,40.82600552,TEST-10459,
429320,2015,12.0,Dead,PLATANUS X ACERIFOLIA,LONDON PLANETREE,No,No,No,No,"279 VAN SICLEN AVENUE, Brooklyn",11207,Brooklyn,-73.89035507,40.67313019,TEST-11207,
427941,2015,3.0,Dead,PLATANUS X ACERIFOLIA,LONDON PLANETREE,No,No,No,No,"1219 ROCKAWAY AVENUE, Brooklyn",11236,Brooklyn,-73.90574553,40.64983347,TEST-11236,
434091,2015,2.0,Dead,ACER PLATANOIDES,NORWAY MAPLE,No,No,No,No,"266 MONTAUK AVENUE, Brooklyn",11208,Brooklyn,-73.87743297,40.67233312,TEST-11208,
429220,2015,6.0,Dead,ACER PLATANOIDES,NORWAY MAPLE,No,No,No,No,"1285 OAK POINT AVENUE, Bronx",10474,Bronx,-73.88550928,40.81047066,TEST-10474,
454719,2015,3.0,Dead,PLATANUS X ACERIFOLIA,LONDON PLANETREE,No,No,No,No,"594 VAN SICLEN AVENUE, Brooklyn",11207,Brooklyn,-73.88839778,40.66497283,TEST-11207,
434445,2015,2.0,Dead,PLATANUS X ACERIFOLIA,LONDON PLANETREE,No,No,No,No,"268 FOUNTAIN AVENUE, Brooklyn",11208,Brooklyn,-73.87492011,40.67324109,TEST-11208,
410910,2015,18.0,Dead,FAGUS GRANDIFOLIA,AMERICAN BEECH,No,No,No,No,"288 HIMROD STREET, Brooklyn",11237,Brooklyn,-73.91887132,40.70101055,TEST-11237,
426181,2015,10.0,Dead,FRAXINUS PENNSYLVANICA,GREEN ASH,No,No,No,No,"1595 BATHGATE AVENUE, Bronx",10457,Bronx,-73.90135954,40.83929312,TEST-10457,
430458,2015,2.0,Dead,PLATANUS X ACERIFOLIA,LONDON PLANETREE,No,No,No,No,"740 EAST 178 STREET, Bronx",10457,Bronx,-73.8890679,40.84548378,TEST-10457,
428075,2015,3.0,Dead,PRUNUS,CHERRY,No,No,No,No,"164 ST PAULS AVENUE, Staten Island",10301,Staten Island,-74.07894768,40.63354495,TEST-10301,
450464,2015,3.0,Dead,AMELANCHIER,SERVICEBERRY,No,No,No,No,"810 CONCOURSE VILLAGE WEST, Bronx",10451,Bronx,-73.92201002,40.82523318,TEST-10451,
454769,2015,2.0,Dead,PLATANUS X ACERIFOLIA,LONDON PLANETREE,No,No,No,No,"1749 LINDEN BOULEVARD, Brooklyn",11207,Brooklyn,-73.89774394,40.65775347,TEST-11207,
451679,2015,3.0,Dead,ACER SACCHARUM,SUGAR MAPLE,No,No,No,No,"953 WESTCHESTER AVENUE, Bronx",10459,Bronx,-73.896126,40.82261743,TEST-10459,
451115,2015,4.0,Dead,TAXODIUM DISTICHUM,BALD CYPRESS,No,No,No,No,"727 FOUNTAIN AVENUE, Brooklyn",11208,Brooklyn,-73.8686422,40.66260857,TEST-11208,
437034,2015,2.0,Dead,PLATANUS X ACERIFOLIA,LONDON PLANETREE,No,No,No,No,"2045 LINDEN BOULEVARD, Brooklyn",11207,Brooklyn,-73.88643279,40.66012888,TEST-11207,
433415,2015,13.0,Dead,PLATANUS X ACERIFOLIA,LONDON PLANETREE,No,No,No,No,"513 ALABAMA AVENUE, Brooklyn",11207,Brooklyn,-73.89654757,40.66344552,TEST-11207,
429185,2015,5.0,Dead,PLATANUS X ACERIFOLIA,LONDON PLANETREE,No,No,No,No,"1144 GLENMORE AVENUE, Brooklyn",11208,Brooklyn,-73.866707,40.67722562,TEST-11208,
452560,2015,6.0,Dead,TILIA AMERICANA,AMERICAN LINDEN,No,No,No,No,"279 EAST 163 STREET, Bronx",10456,Bronx,-73.91707762,40.82714853,TEST-10456,
449409,2015,11.0,Dead,GLEDITSIA TRIACANTHOS ,HONEYLOCUST,No,No,No,No,"153 LIBERTY AVENUE, Staten Island",10305,Staten Island,-74.09627881,40.58788013,TEST-10305,
432536,2015,3.0,Dead,GINKGO BILOBA,GINKGO,No,No,No,No,"864 GLENMORE AVENUE, Brooklyn",11208,Brooklyn,-73.87814597,40.67576306,TEST-11208,
447237,2015,13.0,Dead,GINKGO BILOBA,GINKGO,No,No,No,No,"1518 DUMONT AVENUE, Brooklyn",11208,Brooklyn,-73.861694,40.67096055,TEST-11208,
429219,2015,4.0,Dead,PYRUS CALLERYANA,CALLERY PEAR,No,No,No,No,"500 FAILE STREET, Bronx",10474,Bronx,-73.88552665,40.81053688,TEST-10474,
445149,2015,4.0,Dead,PYRUS CALLERYANA,CALLERY PEAR,No,No,No,No,"761 AUTUMN AVENUE, Brooklyn",11208,Brooklyn,-73.86666822,40.6699507,TEST-11208,
424614,2015,7.0,Dead,GLEDITSIA TRIACANTHOS ,HONEYLOCUST,No,No,No,No,"56-012 196 STREET, Fresh Meadows",11365,Queens,-73.78190614,40.74550859,TEST-11365,
453044,2015,4.0,Dead,GINKGO BILOBA,GINKGO,No,No,No,No,"323 EAST 158 STREET, Bronx",10451,Bronx,-73.91728323,40.82310026,TEST-10451,
441854,2015,2.0,Dead,PYRUS CALLERYANA,CALLERY PEAR,No,No,No,No,"360 SEAVIEW AVENUE, Staten Island",10305,Staten Island,-74.0902763,40.58553529,TEST-10305,
453045,2015,4.0,Dead,SYRINGA PEKINENSIS,CHINESE TREE LILAC,No,No,No,No,"305 EAST 158 STREET, Bronx",10451,Bronx,-73.91736634,40.82312569,TEST-10451,
440118,2015,3.0,Dead,PYRUS CALLERYANA,CALLERY PEAR,No,No,No,No,"1515 47 STREET, Brooklyn",11219,Brooklyn,-73.98598631,40.63320322,TEST-11219,
445808,2015,2.0,Dead,QUERCUS PALUSTRIS,PIN OAK,No,No,No,No,"56 EAST 161 STREET, Bronx",10451,Bronx,-73.92570835,40.82749012,TEST-10451,
439431,2015,2.0,Dead,PYRUS CALLERYANA,CALLERY PEAR,No,No,No,No,"2932 STILLWELL AVENUE, Brooklyn",11224,Brooklyn,-73.98150771,40.57629122,TEST-11224,
451114,2015,4.0,Dead,PYRUS CALLERYANA,CALLERY PEAR,No,No,No,No,"727 FOUNTAIN AVENUE, Brooklyn",11208,Brooklyn,-73.86861157,40.66256752,TEST-11208,
439605,2015,4.0,Dead,PYRUS CALLERYANA,CALLERY PEAR,No,No,No,No,"245 WILLIS AVENUE, Bronx",10454,Bronx,-73.92262941,40.8096281,TEST-10454,
410738,2015,7.0,Dead,PYRUS CALLERYANA,CALLERY PEAR,No,No,No,No,"1090 3 AVENUE, New York",10065,Manhattan,-73.9642044,40.76501411,TEST-10065,
457099,2015,19.0,Dead,QUERCUS PALUSTRIS,PIN OAK,No,No,No,No,"540 HUNTER AVENUE, Staten Island",10306,Staten Island,-74.09225032,40.57544726,TEST-10306,
454304,2015,2.0,Dead,ACER CAMPESTRE,HEDGE MAPLE,No,No,No,No,"49-015 ROCKAWAY BEACH BOULEVARD, Far Rockaway",11691,Queens,-73.78087202,40.59382575,TEST-11691,
462618,2015,2.0,Dead,PYRUS CALLERYANA,CALLERY PEAR,No,No,No,No,"1121 TELLER AVENUE, Bronx",10456,Bronx,-73.91271691,40.8302478,TEST-10456,
446374,2015,6.0,Dead,PYRUS CALLERYANA,CALLERY PEAR,No,No,No,No,"980 FOX STREET, Bronx",10459,Bronx,-73.89394626,40.82231222,TEST-10459,
458868,2015,4.0,Dead,PYRUS CALLERYANA,CALLERY PEAR,No,No,No,No,"428 SHEFFIELD AVENUE, Brooklyn",11207,Brooklyn,-73.89516172,40.66623754,TEST-11207,
456543,2015,21.0,Dead,TILIA TOMENTOSA,SILVER LINDEN,No,No,No,No,"2725 EAST 22 STREET, Brooklyn",11235,Brooklyn,-73.9467764,40.58586419,TEST-11235,
458926,2015,3.0,Dead,PYRUS CALLERYANA,CALLERY PEAR,No,No,No,No,"399 BRADFORD STREET, Brooklyn",11207,Brooklyn,-73.89122255,40.66917936,TEST-11207,
426900,2015,11.0,Dead,PYRUS CALLERYANA,CALLERY PEAR,No,No,No,No,"78-020 101 AVENUE, Ozone Park",11416,Queens,-73.8590843,40.68046319,TEST-11416,
426868,2015,5.0,Dead,QUERCUS PALUSTRIS,PIN OAK,No,No,No,No,"2833 WEST 32 STREET, Brooklyn",11224,Brooklyn,-73.99874758,40.57645267,TEST-11224,
450476,2015,8.0,Dead,PYRUS CALLERYANA,CALLERY PEAR,No,No,No,No,"45-002 31 STREET, Long Island City",11101,Queens,-73.935641,40.74345672,TEST-11101,
450957,2015,2.0,Dead,PYRUS CALLERYANA,CALLERY PEAR,No,No,No,No,"912 EAST 167 STREET, Bronx",10459,Bronx,-73.89512132,40.82608771,TEST-10459,
397915,2015,4.0,Dead,TILIA TOMENTOSA,SILVER LINDEN,No,No,No,No,"644 WESTCHESTER AVENUE, Bronx",10455,Bronx,-73.9087771,40.815877,TEST-10455,
448202,2015,3.0,Dead,PYRUS CALLERYANA,CALLERY PEAR,No,No,No,No,"1042 WESTCHESTER AVENUE, Bronx",10459,Bronx,-73.89168269,40.82465149,TEST-10459,
429385,2015,3.0,Dead,TILIA TOMENTOSA,SILVER LINDEN,No,No,No,No,"277 DEAL COURT, Staten Island",10305,Staten Island,-74.0680066,40.61118359,TEST-10305,
458209,2015,1.0,Dead,PYRUS CALLERYANA,CALLERY PEAR,No,No,No,No,"374 NEW DORP LANE, Staten Island",10306,Staten Island,-74.11007571,40.57056305,TEST-10306,
439183,2015,2.0,Dead,PYRUS CALLERYANA,CALLERY PEAR,No,No,No,No,"1521 SURF AVENUE, Brooklyn",11224,Brooklyn,-73.98391775,40.57546208,TEST-11224,
456484,2015,2.0,Dead,PLATANUS X ACERIFOLIA,LONDON PLANETREE,No,No,No,No,"46 HEMPSTEAD AVENUE, Staten Island",10306,Staten Island,-74.09214561,40.57250376,TEST-10306,
462619,2015,2.0,Dead,PYRUS CALLERYANA,CALLERY PEAR,No,No,No,No,"1117 TELLER AVENUE, Bronx",10456,Bronx,-73.91275309,40.83018612,TEST-10456,
459046,2015,2.0,Dead,PLATANUS X ACERIFOLIA,LONDON PLANETREE,No,No,No,No,"493 HEGEMAN AVENUE, Brooklyn",11207,Brooklyn,-73.89311837,40.65935433,TEST-11207,
432444,2015,12.0,Dead,ZELKOVA SERRATA,JAPANESE ZELKOVA,No,No,No,No,"130 BLEECKER STREET, New York",10012,Manhattan,-73.99847378,40.72772576,TEST-10012,
446209,2015,12.0,Dead,UNKNOWN,UNKNOWN,No,No,No,No,"1000 TIFFANY STREET, Bronx",10459,Bronx,-73.89480121,40.82244275,TEST-10459,
410911,2015,12.0,Dead,QUERCUS RUBRA,NORTHERN RED OAK,No,No,No,No,"284 HIMROD STREET, Brooklyn",11237,Brooklyn,-73.91894907,40.70093142,TEST-11237,
436635,2015,4.0,Dead,JUNIPERUS VIRGINIANA,EASTERN REDCEDAR,No,No,No,No,"824 ELTON STREET, Brooklyn",11208,Brooklyn,-73.87877089,40.662995,TEST-11208,
410750,2015,14.0,Dead,ACER SACCHARINUM,SILVER MAPLE,No,No,No,No,"249 STANHOPE STREET, Brooklyn",11237,Brooklyn,-73.92013695,40.70107233,TEST-11237,
410736,2015,2.0,Dead,PYRUS CALLERYANA,CALLERY PEAR,No,No,No,No,"1090 3 AVENUE, New York",10065,Manhattan,-73.96413311,40.76511399,TEST-10065,
410470,2015,4.0,Dead,PYRUS CALLERYANA,CALLERY PEAR,No,No,No,No,"2551 PELHAM BAY PARK WEST, Bronx",10475,Bronx,-73.81725839,40.88688264,TEST-10475,
446453,2015,0.0,Dead,UNKNOWN,UNKNOWN,No,No,No,No,"606 MILFORD STREET, Brooklyn",11208,Brooklyn,-73.87041603,40.6613194,TEST-11208,Unknown
432600,2015,2.0,Dead,UNKNOWN,UNKNOWN,No,No,No,No,"190 EAST 52 STREET, Brooklyn",11203,Brooklyn,-73.92900721,40.6565267,TEST-11203,
448829,2015,3.0,Dead,QUERCUS PALUSTRIS,PIN OAK,No,No,No,No,"930 OGDEN AVENUE, Bronx",10452,Bronx,-73.93024123,40.83124788,TEST-10452,
456215,2015,2.0,Dead,QUERCUS PALUSTRIS,PIN OAK,No,No,No,No,"571 LINCOLN AVENUE, Staten Island",10306,Staten Island,-74.09397094,40.57155796,TEST-10306,
450801,2015,3.0,Dead,QUERCUS PALUSTRIS,PIN OAK,No,No,No,No,"86 SHERIDAN AVENUE, Brooklyn",11208,Brooklyn,-73.86762602,40.68056297,TEST-11208,
452964,2015,12.0,Dead,ACER PSEUDOPLATANUS,SYCAMORE MAPLE,No,No,No,No,"366 PENNSYLVANIA AVENUE, Brooklyn",11207,Brooklyn,-73.89510726,40.66843819,TEST-11207,
462623,2015,3.0,Dead,UNKNOWN,UNKNOWN,No,No,No,No,"1100 TELLER AVENUE, Bronx",10456,Bronx,-73.91293337,40.82987875,TEST-10456,
458962,2015,3.0,Dead,ZELKOVA SERRATA,JAPANESE ZELKOVA,No,No,No,No,"147-033 71 AVENUE, Flushing",11367,Queens,-73.81934502,40.72895667,TEST-11367,
451124,2015,0.0,Dead,UNKNOWN,UNKNOWN,No,No,No,No,"141-009 228 STREET, Springfield Gardens",11413,Queens,-73.74746275,40.66801354,TEST-11413,Unknown
450791,2015,2.0,Dead,ZELKOVA SERRATA,JAPANESE ZELKOVA,No,No,No,No,"10 SHERIDAN AVENUE, Brooklyn",11208,Brooklyn,-73.86802263,40.68232803,TEST-11208,
417014,2015,0.0,Dead,UNKNOWN,UNKNOWN,No,No,No,No,"1039 EAST 80 STREET, Brooklyn",11236,Brooklyn,-73.91048626,40.63315712,TEST-11236,Unknown
439546,2015,3.0,Dead,QUERCUS PALUSTRIS,PIN OAK,No,No,No,No,"59 NEWPORT STREET, Brooklyn",11212,Brooklyn,-73.91339867,40.65874547,TEST-11212,
410797,2015,4.0,Dead,QUERCUS PALUSTRIS,PIN OAK,No,No,No,No,"227 HIMROD STREET, Brooklyn",11237,Brooklyn,-73.91987568,40.70014688,TEST-11237,
432651,2015,3.0,Dead,PLATANUS X ACERIFOLIA,LONDON PLANETREE,No,No,No,No,"902 GLENMORE AVENUE, Brooklyn",11208,Brooklyn,-73.87670534,40.67596653,TEST-11208,
451116,2015,3.0,Dead,PLATANUS X ACERIFOLIA,LONDON PLANETREE,No,No,No,No,"719 FOUNTAIN AVENUE, Brooklyn",11208,Brooklyn,-73.8686835,40.66266394,TEST-11208,
426901,2015,18.0,Dead,PLATANUS X ACERIFOLIA,LONDON PLANETREE,No,No,No,No,"78-020 101 AVENUE, Ozone Park",11416,Queens,-73.85915324,40.68044367,TEST-11416,
420953,2015,10.0,Dead,PLATANUS X ACERIFOLIA,LONDON PLANETREE,No,No,No,No,"2730 NEPTUNE AVENUE, Brooklyn",11224,Brooklyn,-73.99477164,40.57764495,TEST-11224,
410391,2015,8.0,Dead,PLATANUS X ACERIFOLIA,LONDON PLANETREE,No,No,No,No,"2581 PELHAM BAY PARK WEST, Bronx",10475,Bronx,-73.81700911,40.88858132,TEST-10475,
440113,2015,2.0,Dead,QUERCUS PALUSTRIS,PIN OAK,No,No,No,No,"4621 15 AVENUE, Brooklyn",11219,Brooklyn,-73.98633921,40.63341638,TEST-11219,
446061,2015,4.0,Dead,QUERCUS PALUSTRIS,PIN OAK,No,No,No,No,"116 EAST 157 STREET, Bronx",10451,Bronx,-73.92654179,40.82544245,TEST-10451,
447551,2015,3.0,Dead,QUERCUS PALUSTRIS,PIN OAK,No,No,No,No,"751 WALTON AVENUE, Bronx",10451,Bronx,-73.92562803,40.82484535,TEST-10451,
440886,2015,2.0,Dead,QUERCUS PALUSTRIS,PIN OAK,No,No,No,No,"917 EAST 181 STREET, Bronx",10460,Bronx,-73.88123219,40.84553442,TEST-10460,
430189,2015,2.0,Dead,PLATANUS X ACERIFOLIA,LONDON PLANETREE,No,No,No,No,"8 CEDAR AVENUE, Staten Island",10305,Staten Island,-74.06479096,40.59721936,TEST-10305,
440117,2015,2.0,Dead,QUERCUS PHELLOS,WILLOW OAK,No,No,No,No,"1515 47 STREET, Brooklyn",11219,Brooklyn,-73.9860456,40.63323903,TEST-11219,
462620,2015,2.0,Dead,ULMUS AMERICANA,AMERICAN ELM,No,No,No,No,"1110 TELLER AVENUE, Bronx",10456,Bronx,-73.91279808,40.83010941,TEST-10456,
478742,2015,0.0,Dead,UNKNOWN,UNKNOWN,No,No,No,No,"1231 NELSON AVENUE, Bronx",10452,Bronx,-73.92472296,40.83873608,TEST-10452,Unknown
457005,2015,20.0,Dead,PLATANUS X ACERIFOLIA,LONDON PLANETREE,No,No,No,No,"860 60 STREET, Brooklyn",11220,Brooklyn,-74.00816962,40.63456182,TEST-11220,
441931,2015,2.0,Dead,QUERCUS PALUSTRIS,PIN OAK,No,No,No,No,"193 SLATER BOULEVARD, Staten Island",10305,Staten Island,-74.08961684,40.58070131,TEST-10305,
426723,2015,0.0,Dead,UNKNOWN,UNKNOWN,No,No,No,No,"2706 AVENUE I, Brooklyn",11210,Brooklyn,-73.94984965,40.62881164,TEST-11210,Unknown
462512,2015,2.0,Dead,PLATANUS X ACERIFOLIA,LONDON PLANETREE,No,No,No,No,"178 BRUCKNER BOULEVARD, Bronx",10454,Bronx,-73.91392039,40.80333738,TEST-10454,
462622,2015,2.0,Dead,QUERCUS PALUSTRIS,PIN OAK,No,No,No,No,"1100 TELLER AVENUE, Bronx",10456,Bronx,-73.91290367,40.82992939,TEST-10456,
414006,2015,4.0,Dead,QUERCUS PALUSTRIS,PIN OAK,No,No,No,No,"140 ASHFORD STREET, Brooklyn",11207,Brooklyn,-73.8864228,40.67907327,TEST-11207,
459483,2015,3.0,Dead,CLADRASTIS KENTUKEA,KENTUCKY YELLOWWOOD,No,No,No,No,"399 NEW JERSEY AVENUE, Brooklyn",11207,Brooklyn,-73.89420989,40.66968672,TEST-11207,
453657,2015,6.0,Dead,UNKNOWN,UNKNOWN,No,No,No,No,"138-002 230 STREET, Springfield Gardens",11413,Queens,-73.74362689,40.67104426,TEST-11413,
444952,2015,2.0,Dead,UNKNOWN,UNKNOWN,No,No,No,No,"873 GERARD AVENUE, Bronx",10452,Bronx,-73.92475729,40.82794467,TEST-10452,
448836,2015,4.0,Dead,QUERCUS PALUSTRIS,PIN OAK,No,No,No,No,"900 OGDEN AVENUE, Bronx",10452,Bronx,-73.93050948,40.83077261,TEST-10452,
439544,2015,3.0,Dead,QUERCUS PALUSTRIS,PIN OAK,No,No,No,No,"448 HERZL STREET, Brooklyn",11212,Brooklyn,-73.91304276,40.6587982,TEST-11212,
431788,2015,2.0,Dead,QUERCUS PALUSTRIS,PIN OAK,No,No,No,No,"505 EAST 175 STREET, Bronx",10457,Bronx,-73.89802564,40.84434291,TEST-10457,
458842,2015,10.0,Dead,PLATANUS X ACERIFOLIA,LONDON PLANETREE,No,No,No,No,"29-034 BAILEY COURT, Far Rockaway",11691,Queens,-73.76904456,40.60820274,TEST-11691,
457056,2015,2.0,Dead,PLATANUS X ACERIFOLIA,LONDON PLANETREE,No,No,No,No,"46-000 METROPOLITAN AVENUE, Ridgewood",11385,Queens,-73.92274493,40.71386911,TEST-11385,
451118,2015,3.0,Dead,PLATANUS X ACERIFOLIA,LONDON PLANETREE,No,No,No,No,"719 FOUNTAIN AVENUE, Brooklyn",11208,Brooklyn,-73.86884123,40.66287539,TEST-11208,
410753,2015,5.0,Dead,ZELKOVA SERRATA,JAPANESE ZELKOVA,No,No,No,No,"235 STANHOPE STREET, Brooklyn",11237,Brooklyn,-73.92033229,40.70087349,TEST-11237,
460816,2015,0.0,Dead,QUERCUS PALUSTRIS,PIN OAK,No,No,No,No,"934 INTERVALE AVENUE, Bronx",10459,Bronx,-73.89669311,40.82020827,TEST-10459,
433526,2015,0.0,Dead,UNKNOWN,UNKNOWN,No,No,No,No,"1124 EAST 105 STREET, Brooklyn",11236,Brooklyn,-73.89057017,40.64372845,TEST-11236,Unknown
446612,2015,6.0,Dead,QUERCUS RUBRA,NORTHERN RED OAK,No,No,No,No,"90 EAST 158 STREET, Bronx",10451,Bronx,-73.92613952,40.82639027,TEST-10451,
459479,2015,3.0,Dead,PLATANUS X ACERIFOLIA,LONDON PLANETREE,No,No,No,No,"381 NEW JERSEY AVENUE, Brooklyn",11207,Brooklyn,-73.89430745,40.67006151,TEST-11207,
455901,2015,23.0,Dead,PLATANUS X ACERIFOLIA,LONDON PLANETREE,No,No,No,No,"240-016 ARLEIGH ROAD, Little Neck",11363,Queens,-73.74764993,40.77545472,TEST-11363,
449227,2015,8.0,Dead,GLEDITSIA TRIACANTHOS ,HONEYLOCUST,No,No,No,No,"900 SUMMIT AVENUE, Bronx",10452,Bronx,-73.93142276,40.83094869,TEST-10452,
462817,2015,13.0,Dead,ACER SACCHARINUM,SILVER MAPLE,No,No,No,No,"58 MACORMAC PLACE, Staten Island",10303,Staten Island,-74.17045463,40.63663771,TEST-10303,
451119,2015,3.0,Dead,ACER SACCHARINUM,SILVER MAPLE,No,No,No,No,"719 FOUNTAIN AVENUE, Brooklyn",11208,Brooklyn,-73.86887007,40.66291405,TEST-11208,
437062,2015,4.0,Dead,GLEDITSIA TRIACANTHOS ,HONEYLOCUST,No,No,No,No,"467 WILLIS AVENUE, Bronx",10455,Bronx,-73.91945326,40.81418843,TEST-10455,
443127,2015,2.0,Dead,GLEDITSIA TRIACANTHOS ,HONEYLOCUST,No,No,No,No,"458 COZINE AVENUE, Brooklyn",11208,Brooklyn,-73.87486902,40.65939616,TEST-11208,
440119,2015,4.0,Dead,ACER GINNALA,AMUR MAPLE,No,No,No,No,"1525 47 STREET, Brooklyn",11219,Brooklyn,-73.98591008,40.63315718,TEST-11219,
425196,2015,2.0,Dead,PLATANUS X ACERIFOLIA,LONDON PLANETREE,No,No,No,No,"464 DREW STREET, Brooklyn",11208,Brooklyn,-73.86351667,40.67976703,TEST-11208,
441609,2015,4.0,Dead,GINKGO BILOBA,GINKGO,No,No,No,No,"901 EAST TREMONT AVENUE, Bronx",10460,Bronx,-73.884297,40.84269278,TEST-10460,
462621,2015,3.0,Dead,GLEDITSIA TRIACANTHOS ,HONEYLOCUST,No,No,No,No,"1110 TELLER AVENUE, Bronx",10456,Bronx,-73.91283573,40.83004522,TEST-10456,
459485,2015,2.0,Dead,FRAXINUS PENNSYLVANICA,GREEN ASH,No,No,No,No,"13-012 WHEATLEY STREET, Far Rockaway",11691,Queens,-73.74901507,40.60836088,TEST-11691,
451179,2015,10.0,Dead,FRAXINUS PENNSYLVANICA,GREEN ASH,No,No,No,No,"907 GRANT AVENUE, Bronx",10451,Bronx,-73.91905186,40.82694214,TEST-10451,
422117,2015,3.0,Dead,FRAXINUS AMERICANA,WHITE ASH,No,No,No,No,"162-039 83 STREET, Howard Beach",11414,Queens,-73.84723585,40.65159527,TEST-11414,
430357,2015,3.0,Dead,QUERCUS ROBUR,ENGLISH OAK,No,No,No,No,"83 THOMPSON STREET, Staten Island",10304,Staten Island,-74.07683995,40.62589936,TEST-10304,
451120,2015,4.0,Dead,QUERCUS PALUSTRIS,PIN OAK,No,No,No,No,"699 FOUNTAIN AVENUE, Brooklyn",11208,Brooklyn,-73.86894022,40.66300808,TEST-11208,
444067,2015,2.0,Dead,PLATANUS X ACERIFOLIA,LONDON PLANETREE,No,No,No,No,"194 MALTA STREET, Brooklyn",11207,Brooklyn,-73.89321678,40.65613619,TEST-11207,
466713,2015,3.0,Dead,ACER,MAPLE,No,No,No,No,"811 EAST 226 STREET, Bronx",10466,Bronx,-73.85669021,40.88746209,TEST-10466,
436706,2015,2.0,Dead,METASEQUOIA GLYPTOSTROBOIDES,DAWN REDWOOD,No,No,No,No,"2018 DALY AVENUE, Bronx",10460,Bronx,-73.88231303,40.84323252,TEST-10460,
410799,2015,2.0,Dead,PLATANUS X ACERIFOLIA,LONDON PLANETREE,No,No,No,No,"233 HIMROD STREET, Brooklyn",11237,Brooklyn,-73.91972489,40.70030029,TEST-11237,
437061,2015,3.0,Dead,PLATANUS X ACERIFOLIA,LONDON PLANETREE,No,No,No,No,"382 EAST 146 STREET, Bronx",10455,Bronx,-73.91953224,40.81422171,TEST-10455,
462818,2015,9.0,Dead,ACER,MAPLE,No,No,No,No,"58 MACORMAC PLACE, Staten Island",10303,Staten Island,-74.17052306,40.63663916,TEST-10303,
450714,2015,4.0,Dead,PLATANUS X ACERIFOLIA,LONDON PLANETREE,No,No,No,No,"9 WEST 31 STREET, New York",10001,Manhattan,-73.98676886,40.74693464,TEST-10001,
426807,2015,2.0,Dead,PLATANUS X ACERIFOLIA,LONDON PLANETREE,No,No,No,No,"463 ELDERT LANE, Brooklyn",11208,Brooklyn,-73.86546594,40.67970836,TEST-11208,
460651,2015,2.0,Dead,PLATANUS X ACERIFOLIA,LONDON PLANETREE,No,No,No,No,"30 4 STREET, Staten Island",10306,Staten Island,-74.11820254,40.57387415,TEST-10306,
463059,2015,3.0,Dead,PLATANUS X ACERIFOLIA,LONDON PLANETREE,No,No,No,No,"762 VERMONT STREET, Brooklyn",11207,Brooklyn,-73.89029281,40.66090892,TEST-11207,
462741,2015,3.0,Dead,PLATANUS X ACERIFOLIA,LONDON PLANETREE,No,No,No,No,"599 SHEFFIELD AVENUE, Brooklyn",11207,Brooklyn,-73.89430886,40.66209075,TEST-11207,
425120,2015,2.0,Dead,PLATANUS X ACERIFOLIA,LONDON PLANETREE,No,No,No,No,"93 GLEN STREET, Brooklyn",11208,Brooklyn,-73.87214839,40.6808117,TEST-11208,
425123,2015,3.0,Dead,PLATANUS X ACERIFOLIA,LONDON PLANETREE,No,No,No,No,"109 GLEN STREET, Brooklyn",11208,Brooklyn,-73.87163108,40.68088583,TEST-11208,
462511,2015,2.0,Dead,METASEQUOIA GLYPTOSTROBOIDES,DAWN REDWOOD,No,No,No,No,"714 EAST 136 STREET, Bronx",10454,Bronx,-73.91383962,40.80337379,TEST-10454,
442791,2015,3.0,Dead,CELTIS OCCIDENTALIS,COMMON HACKBERRY,No,No,No,No,"2520 PARK AVENUE, Bronx",10451,Bronx,-73.93042479,40.81214332,TEST-10451,
447610,2015,2.0,Dead,PICEA ABIES,NORWAY SPRUCE,No,No,No,No,"72-026 137 STREET, Flushing",11367,Queens,-73.82515597,40.7240554,TEST-11367,
461414,2015,11.0,Dead,GYMNOCLADUS DIOICUS,KENTUCKY COFFEETREE,No,No,No,No,"631 HEGEMAN AVENUE, Brooklyn",11207,Brooklyn,-73.88863522,40.66128635,TEST-11207,
450180,2015,5.0,Dead,PLATANUS X ACERIFOLIA,LONDON PLANETREE,No,No,No,No,"800 CONCOURSE VILLAGE EAST, Bronx",10451,Bronx,-73.91892788,40.82374796,TEST-10451,
441878,2015,2.0,Dead,PICEA ABIES,NORWAY SPRUCE,No,No,No,No,"197 SLATER BOULEVARD, Staten Island",10305,Staten Island,-74.08914277,40.5808339,TEST-10305,
454825,2015,3.0,Dead,ACER PLATANOIDES 'CRIMSON KING',CRIMSON KING MAPLE,No,No,No,No,"2391 HYLAN BOULEVARD, Staten Island",10306,Staten Island,-74.10780569,40.57286345,TEST-10306,
447519,2015,3.0,Dead,CORNUS FLORIDA,FLOWERING DOGWOOD,No,No,No,No,"1010 HOE AVENUE, Bronx",10459,Bronx,-73.89039583,40.8235868,TEST-10459,
459475,2015,12.0,Dead,PLATANUS X ACERIFOLIA,LONDON PLANETREE,No,No,No,No,"359 NEW JERSEY AVENUE, Brooklyn",11207,Brooklyn,-73.894458,40.67063983,TEST-11207,
451121,2015,4.0,Dead,ACER,MAPLE,No,No,No,No,"699 FOUNTAIN AVENUE, Brooklyn",11208,Brooklyn,-73.86898651,40.66307014,TEST-11208,
395412,2015,9.0,Dead,PLATANUS X ACERIFOLIA,LONDON PLANETREE,No,No,No,No,"48 BELFIELD AVENUE, Staten Island",10312,Staten Island,-74.19130888,40.54719635,TEST-10312,
451834,2015,13.0,Dead,PLATANUS X ACERIFOLIA,LONDON PLANETREE,No,No,No,No,"210 RIVERSIDE DRIVE, New York",10024,Manhattan,-73.97698952,40.79412448,TEST-10024,
447588,2015,10.0,Dead,PLATANUS X ACERIFOLIA,LONDON PLANETREE,No,No,No,No,"131 EAST 153 STREET, Bronx",10451,Bronx,-73.92726038,40.82295938,TEST-10451,
410521,2015,4.0,Dead,CARPINUS CAROLINIANA,AMERICAN HORNBEAM,No,No,No,No,"2 YORK AVENUE, Staten Island",10301,Staten Island,-74.08920943,40.64616592,TEST-10301,
462743,2015,3.0,Dead,PICEA ABIES,NORWAY SPRUCE,No,No,No,No,"621 SHEFFIELD AVENUE, Brooklyn",11207,Brooklyn,-73.89418137,40.66159233,TEST-11207,
445227,2015,7.0,Dead,FAGUS GRANDIFOLIA,AMERICAN BEECH,No,No,No,No,"186 ATLANTIC AVENUE, Staten Island",10305,Staten Island,-74.09237191,40.59175391,TEST-10305,
445228,2015,7.0,Dead,ACER PLATANOIDES 'CRIMSON KING',CRIMSON KING MAPLE,No,No,No,No,"195 RARITAN AVENUE, Staten Island",10305,Staten Island,-74.0927219,40.59148892,TEST-10305,
461601,2015,2.0,Dead,FRAXINUS AMERICANA,WHITE ASH,No,No,No,No,"1373 DICKENS STREET, Far Rockaway",11691,Queens,-73.76030532,40.6084742,TEST-11691,
436705,2015,2.0,Dead,PLATANUS X ACERIFOLIA,LONDON PLANETREE,No,No,No,No,"934 EAST 179 STREET, Bronx",10460,Bronx,-73.88223357,40.84319192,TEST-10460,
451945,2015,3.0,Dead,PLATANUS X ACERIFOLIA,LONDON PLANETREE,No,No,No,No,"110 RIVERSIDE DRIVE, New York",10024,Manhattan,-73.981208,40.78794892,TEST-10024,
425424,2015,2.0,Dead,PLATANUS X ACERIFOLIA,LONDON PLANETREE,No,No,No,No,"548 JERSEY STREET, Staten Island",10301,Staten Island,-74.08441722,40.63597746,TEST-10301,
445226,2015,4.0,Dead,FRAXINUS PENNSYLVANICA,GREEN ASH,No,No,No,No,"191 ATLANTIC AVENUE, Staten Island",10305,Staten Island,-74.09224418,40.59185063,TEST-10305,
410530,2015,9.0,Dead,FRAXINUS PENNSYLVANICA,GREEN ASH,No,No,No,No,"47-060 58 LANE, Woodside",11377,Queens,-73.90745554,40.73897139,TEST-11377,
425488,2015,4.0,Dead,CARPINUS CAROLINIANA,AMERICAN HORNBEAM,No,No,No,No,"441 FAILE STREET, Bronx",10474,Bronx,-73.88537139,40.80997875,TEST-10474,
411266,2015,3.0,Dead,CARPINUS CAROLINIANA,AMERICAN HORNBEAM,No,No,No,No,"250 WILLOUGHBY STREET, Brooklyn",11201,Brooklyn,-73.97785211,40.69192043,TEST-11201,
426477,2015,5.0,Dead,CARPINUS CAROLINIANA,AMERICAN HORNBEAM,No,No,No,No,"284 LINCOLN AVENUE, Brooklyn",11208,Brooklyn,-73.86927154,40.68319347,TEST-11208,
410739,2015,8.0,Dead,FRAXINUS PENNSYLVANICA,GREEN ASH,No,No,No,No,"1103 3 AVENUE, New York",10065,Manhattan,-73.96423917,40.76496538,TEST-10065,
451319,2015,4.0,Dead,FRAXINUS PENNSYLVANICA,GREEN ASH,No,No,No,No,"185 EAST 163 STREET, Bronx",10451,Bronx,-73.92097486,40.82839672,TEST-10451,
411390,2015,12.0,Dead,FRAXINUS PENNSYLVANICA,GREEN ASH,No,No,No,No,"68-005 BURNS STREET, Forest Hills",11375,Queens,-73.85200935,40.72151987,TEST-11375,
447378,2015,2.0,Dead,ACER,MAPLE,No,No,No,No,"973 LINCOLN AVENUE, Brooklyn",11208,Brooklyn,-73.8644593,40.6649236,TEST-11208,
451397,2015,11.0,Dead,CERCIS CANADENSIS,EASTERN REDBUD,No,No,No,No,"13 SHERIDAN AVENUE, Brooklyn",11208,Brooklyn,-73.86789679,40.68225476,TEST-11208,
442187,2015,4.0,Dead,CERCIS CANADENSIS,EASTERN REDBUD,No,No,No,No,"261 WALTON AVENUE, Bronx",10451,Bronx,-73.93006612,40.81429649,TEST-10451,
466706,2015,3.0,Dead,TILIA TOMENTOSA,SILVER LINDEN,No,No,No,No,"943 EAST 229 STREET, Bronx",10466,Bronx,-73.85166594,40.88837508,TEST-10466,
468137,2015,11.0,Dead,MORUS,MULBERRY,No,No,No,No,"27 WINANT STREET, Staten Island",10303,Staten Island,-74.14614689,40.63715318,TEST-10303,
453002,2015,24.0,Dead,PYRUS CALLERYANA,CALLERY PEAR,No,No,No,No,"296 BERRIMAN STREET, Brooklyn",11208,Brooklyn,-73.87919096,40.67121889,TEST-11208,
425147,2015,2.0,Dead,PYRUS CALLERYANA,CALLERY PEAR,No,No,No,No,"3958 PARK AVENUE, Bronx",10457,Bronx,-73.90246877,40.84152697,TEST-10457,
450952,2015,3.0,Dead,CATALPA,CATALPA,No,No,No,No,"12715 FLATLANDS AVENUE, Brooklyn",11208,Brooklyn,-73.86612562,40.66068332,TEST-11208,
469384,2015,4.0,Dead,TILIA TOMENTOSA,SILVER LINDEN,No,No,No,No,"23 WRIGHT AVENUE, Staten Island",10303,Staten Island,-74.14946812,40.63649753,TEST-10303,
463202,2015,5.0,Dead,PYRUS CALLERYANA,CALLERY PEAR,No,No,No,No,"703 VERMONT STREET, Brooklyn",11207,Brooklyn,-73.8910008,40.66205309,TEST-11207,
467448,2015,2.0,Dead,PYRUS CALLERYANA,CALLERY PEAR,No,No,No,No,"26 EAST 183 STREET, Bronx",10468,Bronx,-73.90290877,40.85848454,TEST-10468,
425118,2015,2.0,Dead,PRUNUS VIRGINIANA,'SCHUBERT' CHOKECHERRY,No,No,No,No,"79 GLEN STREET, Brooklyn",11208,Brooklyn,-73.87254169,40.68075535,TEST-11208,
468612,2015,3.0,Dead,GLEDITSIA TRIACANTHOS ,HONEYLOCUST,No,No,No,No,"631 LANETT AVENUE, Far Rockaway",11691,Queens,-73.7421512,40.59935973,TEST-11691,
460122,2015,2.0,Dead,GLEDITSIA TRIACANTHOS ,HONEYLOCUST,No,No,No,No,"13 MALTA STREET, Brooklyn",11207,Brooklyn,-73.89600339,40.66008413,TEST-11207,
425119,2015,2.0,Dead,TILIA AMERICANA,AMERICAN LINDEN,No,No,No,No,"89 GLEN STREET, Brooklyn",11208,Brooklyn,-73.87223697,40.68079901,TEST-11208,
456547,2015,0.0,Dead,UNKNOWN,UNKNOWN,No,No,No,No,"3491 SHORE PARKWAY, Brooklyn",11235,Brooklyn,-73.94644735,40.58512524,TEST-11235,Unknown
462514,2015,2.0,Dead,UNKNOWN,UNKNOWN,No,No,No,No,"178 BRUCKNER BOULEVARD, Bronx",10454,Bronx,-73.91420247,40.80321023,TEST-10454,
440120,2015,3.0,Dead,ZELKOVA SERRATA,JAPANESE ZELKOVA,No,No,No,No,"1525 47 STREET, Brooklyn",11219,Brooklyn,-73.98584797,40.63311967,TEST-11219,
410740,2015,8.0,Dead,QUERCUS RUBRA,NORTHERN RED OAK,No,No,No,No,"1103 3 AVENUE, New York",10065,Manhattan,-73.96427413,40.76491641,TEST-10065,
467296,2015,4.0,Dead,PLATANUS X ACERIFOLIA,LONDON PLANETREE,No,No,No,No,"1759 MONTGOMERY AVENUE, Bronx",10453,Bronx,-73.91795528,40.85089322,TEST-10453,
453147,2015,4.0,Dead,PLATANUS X ACERIFOLIA,LONDON PLANETREE,No,No,No,No,"350 SHEFFIELD AVENUE, Brooklyn",11207,Brooklyn,-73.89608986,40.66853717,TEST-11207,
411267,2015,3.0,Dead,UNKNOWN,UNKNOWN,No,No,No,No,"140 ST EDWARDS STREET, Brooklyn",11201,Brooklyn,-73.97774296,40.69191666,TEST-11201,
425121,2015,2.0,Dead,UNKNOWN,UNKNOWN,No,No,No,No,"97 GLEN STREET, Brooklyn",11208,Brooklyn,-73.87199958,40.68083302,TEST-11208,
425122,2015,2.0,Dead,UNKNOWN,UNKNOWN,No,No,No,No,"99 GLEN STREET, Brooklyn",11208,Brooklyn,-73.8719358,40.68084216,TEST-11208,
425500,2015,3.0,Dead,ZELKOVA SERRATA,JAPANESE ZELKOVA,No,No,No,No,"285 GRANT AVENUE, Brooklyn",11208,Brooklyn,-73.8673212,40.68405398,TEST-11208,
467527,2015,0.0,Dead,UNKNOWN,UNKNOWN,No,No,No,No,"6 EAST 183 STREET, Bronx",10453,Bronx,-73.90336818,40.85852785,TEST-10453,Unknown
468041,2015,2.0,Dead,UNKNOWN,UNKNOWN,No,No,No,No,"535 JARVIS AVENUE, Far Rockaway",11691,Queens,-73.73969462,40.59905312,TEST-11691,
462565,2015,0.0,Dead,UNKNOWN,UNKNOWN,No,No,No,No,"24-021 BAYSWATER AVENUE, Far Rockaway",11691,Queens,-73.76362525,40.60665306,TEST-11691,Unknown
425148,2015,0.0,Dead,UNKNOWN,UNKNOWN,No,No,No,No,"3952 PARK AVENUE, Bronx",10457,Bronx,-73.90255633,40.84137272,TEST-10457,Unknown
455681,2015,3.0,Dead,PLATANUS X ACERIFOLIA,LONDON PLANETREE,No,No,No,No,"25 TUDOR CITY PLACE, New York",10017,Manhattan,-73.97018931,40.74870106,TEST-10017,
453784,2015,25.0,Dead,PYRUS CALLERYANA,CALLERY PEAR,No,No,No,No,"5654 POST ROAD, Bronx",10471,Bronx,-73.89737397,40.90481509,TEST-10471,
446463,2015,4.0,Dead,QUERCUS PALUSTRIS,PIN OAK,No,No,No,No,"705 GERARD AVENUE, Bronx",10451,Bronx,-73.92695573,40.82420422,TEST-10451,
425153,2015,1.0,Dead,QUERCUS PALUSTRIS,PIN OAK,No,No,No,No,"554 EAST 169 STREET, Bronx",10456,Bronx,-73.90385841,40.83229532,TEST-10456,
442183,2015,6.0,Dead,QUERCUS PALUSTRIS,PIN OAK,No,No,No,No,"310 WALTON AVENUE, Bronx",10451,Bronx,-73.9298765,40.8147125,TEST-10451,
447520,2015,3.0,Dead,PLATANUS X ACERIFOLIA,LONDON PLANETREE,No,No,No,No,"1046 HOE AVENUE, Bronx",10459,Bronx,-73.89047311,40.8245154,TEST-10459,
451332,2015,18.0,Dead,PYRUS CALLERYANA,CALLERY PEAR,No,No,No,No,"130 BRIGHTON 11 STREET, Brooklyn",11235,Brooklyn,-73.95797688,40.57971411,TEST-11235,
442191,2015,4.0,Dead,PYRUS CALLERYANA,CALLERY PEAR,No,No,No,No,"123 EAST 138 STREET, Bronx",10451,Bronx,-73.9303716,40.8136263,TEST-10451,
446753,2015,2.0,Dead,PYRUS CALLERYANA,CALLERY PEAR,No,No,No,No,"162-006 92 STREET, Howard Beach",11414,Queens,-73.83979458,40.65390566,TEST-11414,
437112,2015,0.0,Dead,UNKNOWN,UNKNOWN,No,No,No,No,"947 EAST 180 STREET, Bronx",10460,Bronx,-73.88091765,40.84425433,TEST-10460,Unknown
466759,2015,2.0,Dead,ZELKOVA SERRATA,JAPANESE ZELKOVA,No,No,No,No,"2025 WALTON AVENUE, Bronx",10453,Bronx,-73.90714856,40.85279029,TEST-10453,
468531,2015,3.0,Dead,LAGERSTROEMIA,CREPE MYRTLE,No,No,No,No,"146 BEACH 9 STREET, Far Rockaway",11691,Queens,-73.7437795,40.5955003,TEST-11691,
446459,2015,3.0,Dead,PYRUS CALLERYANA,CALLERY PEAR,No,No,No,No,"691 GERARD AVENUE, Bronx",10451,Bronx,-73.92726781,40.82367072,TEST-10451,
455017,2015,3.0,Dead,PYRUS CALLERYANA,CALLERY PEAR,No,No,No,No,"196 CLAWSON STREET, Staten Island",10306,Staten Island,-74.10884484,40.57413943,TEST-10306,
468039,2015,2.0,Dead,GINKGO BILOBA,GINKGO,No,No,No,No,"543 JARVIS AVENUE, Far Rockaway",11691,Queens,-73.74004385,40.59884992,TEST-11691,
449956,2015,7.0,Dead,GINKGO BILOBA,GINKGO,No,No,No,No,"31-027 THOMSON AVENUE, Long Island City",11101,Queens,-73.93435427,40.74473345,TEST-11101,
463227,2015,8.0,Dead,GLEDITSIA TRIACANTHOS ,HONEYLOCUST,No,No,No,No,"170-002 BOOTH MEMORIAL AVENUE, Fresh Meadows",11365,Queens,-73.80130112,40.74212456,TEST-11365,
442192,2015,4.0,Dead,PYRUS CALLERYANA,CALLERY PEAR,No,No,No,No,"123 EAST 138 STREET, Bronx",10451,Bronx,-73.9304021,40.81355938,TEST-10451,
443293,2015,2.0,Dead,PYRUS CALLERYANA,CALLERY PEAR,No,No,No,No,"760 BERRIMAN STREET, Brooklyn",11208,Brooklyn,-73.8714711,40.65924682,TEST-11208,
468529,2015,3.0,Dead,TILIA TOMENTOSA,SILVER LINDEN,No,No,No,No,"146 BEACH 9 STREET, Far Rockaway",11691,Queens,-73.74380568,40.59559708,TEST-11691,
473677,2015,13.0,Dead,PYRUS CALLERYANA,CALLERY PEAR,No,No,No,No,"82 RUTGERS SLIP, New York",10002,Manhattan,-73.98881088,40.71031497,TEST-10002,
433758,2015,2.0,Dead,STYPHNOLOBIUM JAPONICUM,SOPHORA,No,No,No,No,"99 MONTAUK AVENUE, Brooklyn",11208,Brooklyn,-73.87868542,40.6768623,TEST-11208,
415442,2015,2.0,Dead,UNKNOWN,UNKNOWN,No,No,No,No,"311 CASANOVA STREET, Bronx",10474,Bronx,-73.88828241,40.80648652,TEST-10474,
442339,2015,0.0,Dead,UNKNOWN,UNKNOWN,No,No,No,No,"147-038 ELM AVENUE, Flushing",11355,Queens,-73.81416146,40.75645056,TEST-11355,Unknown
427856,2015,4.0,Dead,ZELKOVA SERRATA,JAPANESE ZELKOVA,No,No,No,No,"246 BRIGHTON AVENUE, Staten Island",10301,Staten Island,-74.09360173,40.63488918,TEST-10301,
461799,2015,0.0,Dead,UNKNOWN,UNKNOWN,No,No,No,No,"38-021 CORPORAL KENNEDY STREET, Bayside",11361,Queens,-73.77647463,40.76459741,TEST-11361,Unknown
450703,2015,0.0,Dead,UNKNOWN,UNKNOWN,No,No,No,No,"187 EAST 98 STREET, New York",10029,Manhattan,-73.94890096,40.78676152,TEST-10029,Unknown
443324,2015,12.0,Dead,ULMUS PARVIFOLIA,CHINESE ELM,No,No,No,No,"484 ADAMS AVENUE, Staten Island",10306,Staten Island,-74.09309979,40.57641778,TEST-10306,
462476,2015,2.0,Dead,ZELKOVA SERRATA,JAPANESE ZELKOVA,No,No,No,No,"721 EAST 136 STREET, Bronx",10454,Bronx,-73.91331798,40.80361195,TEST-10454,
450057,2015,10.0,Dead,SYRINGA RETICULATA,JAPANESE TREE LILAC,No,No,No,No,"45-001 VAN DAM STREET, Long Island City",11101,Queens,-73.93378037,40.74426038,TEST-11101,
446078,2015,3.0,Dead,SYRINGA RETICULATA,JAPANESE TREE LILAC,No,No,No,No,"414 BEACH 36 STREET, Far Rockaway",11691,Queens,-73.76875538,40.59668884,TEST-11691,
468759,2015,4.0,Dead,PYRUS CALLERYANA,CALLERY PEAR,No,No,No,No,"133 EAST 183 STREET, Bronx",10468,Bronx,-73.90075114,40.85774264,TEST-10468,
434798,2015,9.0,Dead,QUERCUS PALUSTRIS,PIN OAK,No,No,No,No,"85-012 GRAND AVENUE, Elmhurst",11373,Queens,-73.88166951,40.73506724,TEST-11373,
461625,2015,2.0,Dead,PLATANUS X ACERIFOLIA,LONDON PLANETREE,No,No,No,No,"41 BEAVER STREET, Brooklyn",11206,Brooklyn,-73.93792571,40.70030011,TEST-11206,
473675,2015,14.0,Dead,PLATANUS X ACERIFOLIA,LONDON PLANETREE,No,No,No,No,"82 RUTGERS SLIP, New York",10002,Manhattan,-73.98896281,40.71029749,TEST-10002,
466354,2015,3.0,Dead,PLATANUS X ACERIFOLIA,LONDON PLANETREE,No,No,No,No,"309 SIMONSON AVENUE, Staten Island",10303,Staten Island,-74.15261529,40.62868127,TEST-10303,
468619,2015,4.0,Dead,PLATANUS X ACERIFOLIA,LONDON PLANETREE,No,No,No,No,"1029 REV JAMES POLITE AVENUE, Bronx",10459,Bronx,-73.89893691,40.82420949,TEST-10459,
451337,2015,0.0,Dead,UNKNOWN,UNKNOWN,No,No,No,No,"66 BRIGHTON 11 STREET, Brooklyn",11235,Brooklyn,-73.95696423,40.5811314,TEST-11235,Unknown
410741,2015,8.0,Dead,TILIA CORDATA,LITTLELEAF LINDEN,No,No,No,No,"188 EAST 64 STREET, New York",10065,Manhattan,-73.96431373,40.76486092,TEST-10065,
425262,2015,2.0,Dead,TILIA CORDATA,LITTLELEAF LINDEN,No,No,No,No,"3480 FULTON STREET, Brooklyn",11208,Brooklyn,-73.86683776,40.68510774,TEST-11208,
446052,2015,11.0,Dead,AESCULUS GLABRA,OHIO BUCKEYE,No,No,No,No,"944 TIFFANY STREET, Bronx",10459,Bronx,-73.89498529,40.82119805,TEST-10459,
450151,2015,2.0,Dead,PYRUS CALLERYANA,CALLERY PEAR,No,No,No,No,"774 MONTAUK AVENUE, Brooklyn",11208,Brooklyn,-73.86991516,40.65994855,TEST-11208,
475021,2015,2.0,Dead,TILIA CORDATA,LITTLELEAF LINDEN,No,No,No,No,"2746 DECATUR AVENUE, Bronx",10458,Bronx,-73.8877171,40.8657255,TEST-10458,
473092,2015,4.0,Dead,ACER NIGRUM,BLACK MAPLE,No,No,No,No,"36 BEDFORD PARK BOULEVARD, Bronx",10468,Bronx,-73.88841932,40.87239185,TEST-10468,
455669,2015,4.0,Dead,BETULA PAPYRIFERA,PAPER BIRCH,No,No,No,No,"1195 EAST 229 STREET, Bronx",10466,Bronx,-73.84386004,40.88545378,TEST-10466,
469373,2015,5.0,Dead,QUERCUS IMBRICARIA,SHINGLE OAK,No,No,No,No,"187 NETHERLAND AVENUE, Staten Island",10303,Staten Island,-74.15489136,40.62857516,TEST-10303,
469412,2015,2.0,Dead,TILIA CORDATA,LITTLELEAF LINDEN,No,No,No,No,"86 RONALD AVENUE, Staten Island",10303,Staten Island,-74.15122722,40.6278705,TEST-10303,
463218,2015,31.0,Dead,TILIA CORDATA,LITTLELEAF LINDEN,No,No,No,No,"163-016 BOOTH MEMORIAL AVENUE, Fresh Meadows",11365,Queens,-73.80271154,40.74210916,TEST-11365,
473678,2015,5.0,Dead,FRAXINUS PENNSYLVANICA,GREEN ASH,No,No,No,No,"271 SOUTH STREET, New York",10002,Manhattan,-73.98849917,40.71035083,TEST-10002,
463786,2015,4.0,Dead,FRAXINUS PENNSYLVANICA,GREEN ASH,No,No,No,No,"2926 VALENTINE AVENUE, Bronx",10458,Bronx,-73.88748148,40.87100994,TEST-10458,
473676,2015,14.0,Dead,QUERCUS IMBRICARIA,SHINGLE OAK,No,No,No,No,"82 RUTGERS SLIP, New York",10002,Manhattan,-73.98887864,40.71030718,TEST-10002,
464945,2015,4.0,Dead,QUERCUS IMBRICARIA,SHINGLE OAK,No,No,No,No,"2613 BRIGGS AVENUE, Bronx",10458,Bronx,-73.89302383,40.86472172,TEST-10458,
442186,2015,5.0,Dead,STYPHNOLOBIUM JAPONICUM,SOPHORA,No,No,No,No,"310 WALTON AVENUE, Bronx",10451,Bronx,-73.92997367,40.8144993,TEST-10451,
456070,2015,4.0,Dead,PICEA PUNGENS,BLUE SPRUCE,No,No,No,No,"383 BADEN PLACE, Staten Island",10306,Staten Island,-74.09455982,40.56889498,TEST-10306,
459374,2015,3.0,Dead,FRAXINUS PENNSYLVANICA,GREEN ASH,No,No,No,No,"3510 STEENWICK AVENUE, Bronx",10475,Bronx,-73.83090341,40.88382196,TEST-10475,
469168,2015,2.0,Dead,PRUNUS VIRGINIANA,'SCHUBERT' CHOKECHERRY,No,No,No,No,"9-001 PLAINVIEW AVENUE, Far Rockaway",11691,Queens,-73.74447382,40.59730119,TEST-11691,
456183,2015,18.0,Dead,PRUNUS VIRGINIANA,'SCHUBERT' CHOKECHERRY,No,No,No,No,"366 FREEBORN STREET, Staten Island",10306,Staten Island,-74.09628902,40.57042956,TEST-10306,
443259,2015,2.0,Dead,PLATANUS X ACERIFOLIA,LONDON PLANETREE,No,No,No,No,"833 SHEFFIELD AVENUE, Brooklyn",11207,Brooklyn,-73.89048599,40.65679965,TEST-11207,
456302,2015,8.0,Dead,PLATANUS X ACERIFOLIA,LONDON PLANETREE,No,No,No,No,"850 PATTERSON AVENUE, Staten Island",10306,Staten Island,-74.09146344,40.57087017,TEST-10306,
450147,2015,3.0,Dead,PLATANUS X ACERIFOLIA,LONDON PLANETREE,No,No,No,No,"774 MONTAUK AVENUE, Brooklyn",11208,Brooklyn,-73.86948062,40.66010743,TEST-11208,
468530,2015,3.0,Dead,QUERCUS RUBRA,NORTHERN RED OAK,No,No,No,No,"146 BEACH 9 STREET, Far Rockaway",11691,Queens,-73.74379113,40.59554331,TEST-11691,
474699,2015,3.0,Dead,UNKNOWN,UNKNOWN,No,No,No,No,"438 VILLA AVENUE, Staten Island",10302,Staten Island,-74.14272882,40.62982935,TEST-10302,
473629,2015,2.0,Dead,PLATANUS X ACERIFOLIA,LONDON PLANETREE,No,No,No,No,"242 DIXON AVENUE, Staten Island",10303,Staten Island,-74.15024018,40.62843101,TEST-10303,
461631,2015,13.0,Dead,PLATANUS X ACERIFOLIA,LONDON PLANETREE,No,No,No,No,"21-003 MOTT AVENUE, Far Rockaway",11691,Queens,-73.75343664,40.60459692,TEST-11691,
443445,2015,5.0,Dead,ACER GINNALA,AMUR MAPLE,No,No,No,No,"620 EAST 48 STREET, Brooklyn",11203,Brooklyn,-73.93183604,40.64651033,TEST-11203,
475018,2015,2.0,Dead,PLATANUS X ACERIFOLIA,LONDON PLANETREE,No,No,No,No,"2726 DECATUR AVENUE, Bronx",10458,Bronx,-73.88803502,40.86544544,TEST-10458,
442660,2015,4.0,Dead,PLATANUS X ACERIFOLIA,LONDON PLANETREE,No,No,No,No,"270 WILLIS AVENUE, Bronx",10454,Bronx,-73.92238202,40.80960138,TEST-10454,
465083,2015,4.0,Dead,PLATANUS X ACERIFOLIA,LONDON PLANETREE,No,No,No,No,"251 EAST KINGSBRIDGE ROAD, Bronx",10458,Bronx,-73.89404422,40.86455266,TEST-10458,
469420,2015,3.0,Dead,PLATANUS X ACERIFOLIA,LONDON PLANETREE,No,No,No,No,"34 RONALD AVENUE, Staten Island",10303,Staten Island,-74.14957922,40.62765673,TEST-10303,
468533,2015,2.0,Dead,TILIA CORDATA,LITTLELEAF LINDEN,No,No,No,No,"146 BEACH 9 STREET, Far Rockaway",11691,Queens,-73.74373077,40.59532019,TEST-11691,
468580,2015,2.0,Dead,TILIA CORDATA,LITTLELEAF LINDEN,No,No,No,No,"2434 CRESTON AVENUE, Bronx",10468,Bronx,-73.89880017,40.86137678,TEST-10468,
468697,2015,2.0,Dead,TILIA CORDATA,LITTLELEAF LINDEN,No,No,No,No,"711 SEAGIRT AVENUE, Far Rockaway",11691,Queens,-73.74190222,40.59593539,TEST-11691,
473022,2015,4.0,Dead,PLATANUS X ACERIFOLIA,LONDON PLANETREE,No,No,No,No,"3126 JEROME AVENUE, Bronx",10468,Bronx,-73.89022693,40.87606783,TEST-10468,
425628,2015,2.0,Dead,PLATANUS X ACERIFOLIA,LONDON PLANETREE,No,No,No,No,"732 SNEDIKER AVENUE, Brooklyn",11207,Brooklyn,-73.89783779,40.65677595,TEST-11207,
442185,2015,5.0,Dead,STYPHNOLOBIUM JAPONICUM,SOPHORA,No,No,No,No,"310 WALTON AVENUE, Bronx",10451,Bronx,-73.92994979,40.8145517,TEST-10451,
465049,2015,3.0,Dead,STYPHNOLOBIUM JAPONICUM,SOPHORA,No,No,No,No,"828 RITTER PLACE, Bronx",10459,Bronx,-73.89744997,40.83092762,TEST-10459,
466353,2015,2.0,Dead,STYPHNOLOBIUM JAPONICUM,SOPHORA,No,No,No,No,"323 SIMONSON AVENUE, Staten Island",10303,Staten Island,-74.15267406,40.62827531,TEST-10303,
448352,2015,2.0,Dead,TILIA CORDATA,LITTLELEAF LINDEN,No,No,No,No,"204 5 AVENUE, New York",10010,Manhattan,-73.98842587,40.7429478,TEST-10010,
476914,2015,2.0,Dead,TILIA CORDATA,LITTLELEAF LINDEN,No,No,No,No,"281 SHARPE AVENUE, Staten Island",10302,Staten Island,-74.13804691,40.63327571,TEST-10302,
446766,2015,4.0,Dead,POPULUS TREMULOIDES,QUAKING ASPEN,No,No,No,No,"1062 LONGFELLOW AVENUE, Bronx",10459,Bronx,-73.88768778,40.82503125,TEST-10459,
448178,2015,10.0,Dead,PLATANUS X ACERIFOLIA,LONDON PLANETREE,No,No,No,No,"932 HOE AVENUE, Bronx",10459,Bronx,-73.89038099,40.82192371,TEST-10459,
467403,2015,2.0,Dead,FRAXINUS PENNSYLVANICA,GREEN ASH,No,No,No,No,"2954 BRIGHTON 12 STREET, Brooklyn",11235,Brooklyn,-73.95590933,40.58082222,TEST-11235,
443253,2015,2.0,Dead,PLATANUS X ACERIFOLIA,LONDON PLANETREE,No,No,No,No,"170 BROWN PLACE, Bronx",10454,Bronx,-73.92073186,40.80643112,TEST-10454,
465100,2015,5.0,Dead,QUERCUS RUBRA,NORTHERN RED OAK,No,No,No,No,"2720 GRAND CONCOURSE, Bronx",10458,Bronx,-73.89288924,40.86761145,TEST-10458,
475019,2015,3.0,Dead,UNKNOWN,UNKNOWN,No,No,No,No,"2726 DECATUR AVENUE, Bronx",10458,Bronx,-73.88796728,40.86550511,TEST-10458,
425526,2015,2.0,Dead,ZELKOVA SERRATA,JAPANESE ZELKOVA,No,No,No,No,"10803 FLATLANDS 7 STREET, Brooklyn",11236,Brooklyn,-73.88474881,40.64197856,TEST-11236,
442659,2015,3.0,Dead,PLATANUS X ACERIFOLIA,LONDON PLANETREE,No,No,No,No,"266 WILLIS AVENUE, Bronx",10454,Bronx,-73.92243944,40.80952326,TEST-10454,
431746,2015,2.0,Dead,PLATANUS X ACERIFOLIA,LONDON PLANETREE,No,No,No,No,"1384 EAST 103 STREET, Brooklyn",11236,Brooklyn,-73.88734403,40.63853955,TEST-11236,
469418,2015,3.0,Dead,PLATANUS X ACERIFOLIA,LONDON PLANETREE,No,No,No,No,"46 RONALD AVENUE, Staten Island",10303,Staten Island,-74.14976406,40.62767991,TEST-10303,
474319,2015,10.0,Dead,PLATANUS X ACERIFOLIA,LONDON PLANETREE,No,No,No,No,"215 ADA DRIVE, Staten Island",10303,Staten Island,-74.161775,40.62107939,TEST-10303,
460690,2015,5.0,Dead,PLATANUS X ACERIFOLIA,LONDON PLANETREE,No,No,No,No,"945 EAST 163 STREET, Bronx",10459,Bronx,-73.89636505,40.8210768,TEST-10459,
468693,2015,9.0,Dead,CORNUS FLORIDA,FLOWERING DOGWOOD,No,No,No,No,"711 SEAGIRT AVENUE, Far Rockaway",11691,Queens,-73.74256092,40.59594921,TEST-11691,
475020,2015,2.0,Dead,PLATANUS X ACERIFOLIA,LONDON PLANETREE,No,No,No,No,"2746 DECATUR AVENUE, Bronx",10458,Bronx,-73.88777658,40.86567311,TEST-10458,
442657,2015,4.0,Dead,PLATANUS X ACERIFOLIA,LONDON PLANETREE,No,No,No,No,"252 WILLIS AVENUE, Bronx",10454,Bronx,-73.92255992,40.80935935,TEST-10454,
475456,2015,13.0,Dead,METASEQUOIA GLYPTOSTROBOIDES,DAWN REDWOOD,No,No,No,No,"56-025 197 STREET, Fresh Meadows",11365,Queens,-73.77969186,40.74532549,TEST-11365,
446922,2015,2.0,Dead,ACER,MAPLE,No,No,No,No,"343 BEACH 39 STREET, Far Rockaway",11691,Queens,-73.77163247,40.59580922,TEST-11691,
469372,2015,3.0,Dead,PRUNUS CERASIFERA,PURPLE-LEAF PLUM,No,No,No,No,"183 NETHERLAND AVENUE, Staten Island",10303,Staten Island,-74.15480914,40.62855661,TEST-10303,
447094,2015,4.0,Dead,PRUNUS,CHERRY,No,No,No,No,"1040 BRYANT AVENUE, Bronx",10459,Bronx,-73.88860851,40.8247614,TEST-10459,
446919,2015,2.0,Dead,PRUNUS,CHERRY,No,No,No,No,"350 BEACH 40 STREET, Far Rockaway",11691,Queens,-73.77211431,40.59575433,TEST-11691,
464435,2015,2.0,Dead,LIRIODENDRON TULIPIFERA,TULIP-POPLAR,No,No,No,No,"1421 EAST 95 STREET, Brooklyn",11236,Brooklyn,-73.89647208,40.63737719,TEST-11236,
425638,2015,3.0,Dead,PRUNUS,CHERRY,No,No,No,No,"379 EUCLID AVENUE, Brooklyn",11208,Brooklyn,-73.87289775,40.67866817,TEST-11208,
462005,2015,3.0,Dead,PRUNUS,CHERRY,No,No,No,No,"108 SOUTH AVENUE, Staten Island",10303,Staten Island,-74.16620319,40.63730267,TEST-10303,
460720,2015,5.0,Dead,GLEDITSIA TRIACANTHOS ,HONEYLOCUST,No,No,No,No,"942 EAST 163 STREET, Bronx",10459,Bronx,-73.89609605,40.82089604,TEST-10459,
474087,2015,3.0,Dead,GLEDITSIA TRIACANTHOS ,HONEYLOCUST,No,No,No,No,"10-077 BAY 24 STREET, Far Rockaway",11691,Queens,-73.76216828,40.60467851,TEST-11691,
466204,2015,2.0,Dead,PRUNUS,CHERRY,No,No,No,No,"850 EAST 229 STREET, Bronx",10466,Bronx,-73.85406663,40.88902744,TEST-10466,
469371,2015,7.0,Dead,PRUNUS CERASIFERA,PURPLE-LEAF PLUM,No,No,No,No,"179 NETHERLAND AVENUE, Staten Island",10303,Staten Island,-74.15460678,40.62851695,TEST-10303,
461021,2015,2.0,Dead,PRUNUS,CHERRY,No,No,No,No,"1 SUMNER PLACE, Brooklyn",11206,Brooklyn,-73.94088667,40.70064445,TEST-11206,
475455,2015,14.0,Dead,GLEDITSIA TRIACANTHOS ,HONEYLOCUST,No,No,No,No,"56-029 197 STREET, Fresh Meadows",11365,Queens,-73.77963586,40.74520389,TEST-11365,
473090,2015,5.0,Dead,GINKGO BILOBA,GINKGO,No,No,No,No,"36 BEDFORD PARK BOULEVARD, Bronx",10468,Bronx,-73.88831154,40.8723019,TEST-10468,
429765,2015,11.0,Dead,GLEDITSIA TRIACANTHOS ,HONEYLOCUST,No,No,No,No,"39-028 234 STREET, Little Neck",11363,Queens,-73.75097286,40.76920559,TEST-11363,
473181,2015,9.0,Dead,GLEDITSIA TRIACANTHOS ,HONEYLOCUST,No,No,No,No,"1286 EAST 229 STREET, Bronx",10466,Bronx,-73.84156724,40.88310825,TEST-10466,
464091,2015,4.0,Dead,GLEDITSIA TRIACANTHOS ,HONEYLOCUST,No,No,No,No,"22-058 CORNAGA AVENUE, Far Rockaway",11691,Queens,-73.75742897,40.602116,TEST-11691,
468255,2015,1.0,Dead,PRUNUS CERASIFERA,PURPLE-LEAF PLUM,No,No,No,No,"114 EAST FORDHAM ROAD, Bronx",10468,Bronx,-73.89878961,40.8621342,TEST-10468,
461339,2015,3.0,Dead,GLEDITSIA TRIACANTHOS ,HONEYLOCUST,No,No,No,No,"25-042 MOTT AVENUE, Far Rockaway",11691,Queens,-73.76451487,40.60838981,TEST-11691,
455477,2015,4.0,Dead,GLEDITSIA TRIACANTHOS ,HONEYLOCUST,No,No,No,No,"408 EAST 158 STREET, Bronx",10451,Bronx,-73.91492618,40.82162729,TEST-10451,
463783,2015,4.0,Dead,GINKGO BILOBA,GINKGO,No,No,No,No,"2934 VALENTINE AVENUE, Bronx",10458,Bronx,-73.88727912,40.87115024,TEST-10458,
468695,2015,2.0,Dead,TILIA AMERICANA,AMERICAN LINDEN,No,No,No,No,"711 SEAGIRT AVENUE, Far Rockaway",11691,Queens,-73.74226577,40.59594302,TEST-11691,
459103,2015,7.0,Dead,GLEDITSIA TRIACANTHOS ,HONEYLOCUST,No,No,No,No,"29-005 WESTBOURNE AVENUE, Far Rockaway",11691,Queens,-73.76735836,40.60821317,TEST-11691,
426177,2015,4.0,Dead,ACER CAMPESTRE,HEDGE MAPLE,No,No,No,No,"3102 MERMAID AVENUE, Brooklyn",11224,Brooklyn,-73.99752122,40.57500484,TEST-11224,
463788,2015,4.0,Dead,ACER RUBRUM,RED MAPLE,No,No,No,No,"2927 VALENTINE AVENUE, Bronx",10458,Bronx,-73.8876446,40.87089684,TEST-10458,
475431,2015,13.0,Dead,GLEDITSIA TRIACANTHOS ,HONEYLOCUST,No,No,No,No,"34 LA FORGE AVENUE, Staten Island",10302,Staten Island,-74.14041988,40.63118612,TEST-10302,
462382,2015,3.0,Dead,ACER RUBRUM,RED MAPLE,No,No,No,No,"60 COOK STREET, Brooklyn",11206,Brooklyn,-73.94073446,40.70236733,TEST-11206,
442658,2015,5.0,Dead,STYPHNOLOBIUM JAPONICUM,SOPHORA,No,No,No,No,"258 WILLIS AVENUE, Bronx",10454,Bronx,-73.92250708,40.80943124,TEST-10454,
465079,2015,3.0,Dead,PYRUS CALLERYANA,CALLERY PEAR,No,No,No,No,"277 EAST KINGSBRIDGE ROAD, Bronx",10458,Bronx,-73.89412296,40.8634704,TEST-10458,
460877,2015,6.0,Dead,PRUNUS,CHERRY,No,No,No,No,"86 7 STREET, Staten Island",10306,Staten Island,-74.11976168,40.57025005,TEST-10306,
469419,2015,3.0,Dead,ACER PSEUDOPLATANUS,SYCAMORE MAPLE,No,No,No,No,"40 RONALD AVENUE, Staten Island",10303,Staten Island,-74.14964676,40.6276652,TEST-10303,
453227,2015,4.0,Dead,MORUS,MULBERRY,No,No,No,No,"938 DUMONT AVENUE, Brooklyn",11207,Brooklyn,-73.88389207,40.6677985,TEST-11207,
462253,2015,6.0,Dead,PYRUS CALLERYANA,CALLERY PEAR,No,No,No,No,"480 NETHERLAND AVENUE, Staten Island",10303,Staten Island,-74.16549128,40.62810596,TEST-10303,
470182,2015,5.0,Dead,PYRUS CALLERYANA,CALLERY PEAR,No,No,No,No,"980 TRINITY AVENUE, Bronx",10456,Bronx,-73.90526657,40.82417287,TEST-10456,
464089,2015,4.0,Dead,PYRUS CALLERYANA,CALLERY PEAR,No,No,No,No,"674 GRASSMERE TERRACE, Far Rockaway",11691,Queens,-73.75756584,40.602129,TEST-11691,
464090,2015,4.0,Dead,TILIA TOMENTOSA,SILVER LINDEN,No,No,No,No,"674 GRASSMERE TERRACE, Far Rockaway",11691,Queens,-73.75749651,40.60212242,TEST-11691,
448219,2015,3.0,Dead,PYRUS CALLERYANA,CALLERY PEAR,No,No,No,No,"1356 LORING AVENUE, Brooklyn",11208,Brooklyn,-73.8603711,40.66799648,TEST-11208,
473436,2015,8.0,Dead,GLEDITSIA TRIACANTHOS ,HONEYLOCUST,No,No,No,No,"153 AMADOR STREET, Staten Island",10303,Staten Island,-74.16723473,40.62418778,TEST-10303,
447572,2015,4.0,Dead,PYRUS CALLERYANA,CALLERY PEAR,No,No,No,No,"675 WALTON AVENUE, Bronx",10451,Bronx,-73.92673926,40.82284928,TEST-10451,
476743,2015,4.0,Dead,TILIA AMERICANA,AMERICAN LINDEN,No,No,No,No,"125 HUMBOLDT STREET, Brooklyn",11206,Brooklyn,-73.94165427,40.70595717,TEST-11206,
466754,2015,2.0,Dead,KOELREUTERIA PANICULATA,GOLDEN RAINTREE,No,No,No,No,"10 FAYETTE STREET, Brooklyn",11206,Brooklyn,-73.94013045,40.70009072,TEST-11206,
463009,2015,4.0,Dead,PYRUS CALLERYANA,CALLERY PEAR,No,No,No,No,"140 NORTHFIELD AVENUE, Staten Island",10303,Staten Island,-74.16828007,40.63687399,TEST-10303,
466117,2015,2.0,Dead,PYRUS CALLERYANA,CALLERY PEAR,No,No,No,No,"2946 RICHMOND TERRACE, Staten Island",10303,Staten Island,-74.15822693,40.63675339,TEST-10303,
467627,2015,3.0,Dead,PYRUS CALLERYANA,CALLERY PEAR,No,No,No,No,"221 VAN NAME AVENUE, Staten Island",10303,Staten Island,-74.15372982,40.63065224,TEST-10303,
447717,2015,3.0,Dead,PYRUS CALLERYANA,CALLERY PEAR,No,No,No,No,"710 GERARD AVENUE, Bronx",10451,Bronx,-73.9269559,40.82394167,TEST-10451,
466734,2015,4.0,Dead,PYRUS CALLERYANA,CALLERY PEAR,No,No,No,No,"4176 LACONIA AVENUE, Bronx",10466,Bronx,-73.84605999,40.88922438,TEST-10466,
466737,2015,2.0,Dead,PYRUS CALLERYANA,CALLERY PEAR,No,No,No,No,"800 EAST 223 STREET, Bronx",10466,Bronx,-73.85820567,40.88536557,TEST-10466,
447569,2015,4.0,Dead,QUERCUS SHUMARDII,SCHUMARD'S OAK,No,No,No,No,"711 WALTON AVENUE, Bronx",10451,Bronx,-73.92653211,40.82322139,TEST-10451,
473734,2015,4.0,Dead,PYRUS CALLERYANA,CALLERY PEAR,No,No,No,No,"68-011 GROTON STREET, Forest Hills",11375,Queens,-73.85346719,40.71809628,TEST-11375,
478814,2015,2.0,Dead,PYRUS CALLERYANA,CALLERY PEAR,No,No,No,No,"132 WEST 169 STREET, Bronx",10452,Bronx,-73.92487847,40.84006767,TEST-10452,
466118,2015,2.0,Dead,TILIA TOMENTOSA,SILVER LINDEN,No,No,No,No,"2948 RICHMOND TERRACE, Staten Island",10303,Staten Island,-74.15831754,40.63675115,TEST-10303,
462424,2015,4.0,Dead,PYRUS CALLERYANA,CALLERY PEAR,No,No,No,No,"455 JACKSON AVENUE, Bronx",10455,Bronx,-73.9099003,40.81069851,TEST-10455,
455236,2015,2.0,Dead,PYRUS CALLERYANA,CALLERY PEAR,No,No,No,No,"410 EAST 156 STREET, Bronx",10451,Bronx,-73.91510042,40.820734,TEST-10451,
466082,2015,3.0,Dead,PYRUS CALLERYANA,CALLERY PEAR,No,No,No,No,"4012 BRONXWOOD AVENUE, Bronx",10466,Bronx,-73.85392258,40.88715333,TEST-10466,
468701,2015,2.0,Dead,ROBINIA PSEUDOACACIA,BLACK LOCUST,No,No,No,No,"711 SEAGIRT AVENUE, Far Rockaway",11691,Queens,-73.74143429,40.59592557,TEST-11691,
459305,2015,3.0,Dead,ROBINIA PSEUDOACACIA,BLACK LOCUST,No,No,No,No,"707 SHEFFIELD AVENUE, Brooklyn",11207,Brooklyn,-73.89257254,40.65981457,TEST-11207,
467580,2015,3.0,Dead,ROBINIA PSEUDOACACIA,BLACK LOCUST,No,No,No,No,"2001 CRESTON AVENUE, Bronx",10453,Bronx,-73.90592086,40.85129426,TEST-10453,
462898,2015,6.0,Dead,KOELREUTERIA PANICULATA,GOLDEN RAINTREE,No,No,No,No,"497 TINTON AVENUE, Bronx",10455,Bronx,-73.90705564,40.81128324,TEST-10455,
474851,2015,14.0,Dead,KOELREUTERIA PANICULATA,GOLDEN RAINTREE,No,No,No,No,"9 LORRAINE STREET, Brooklyn",11231,Brooklyn,-74.0093922,40.67533138,TEST-11231,
467629,2015,5.0,Dead,PYRUS CALLERYANA,CALLERY PEAR,No,No,No,No,"241 VAN NAME AVENUE, Staten Island",10303,Staten Island,-74.1538221,40.63001713,TEST-10303,
446337,2015,4.0,Dead,TILIA TOMENTOSA,SILVER LINDEN,No,No,No,No,"1033 LOWELL STREET, Bronx",10459,Bronx,-73.88762939,40.82589215,TEST-10459,
467865,2015,2.0,Dead,PYRUS CALLERYANA,CALLERY PEAR,No,No,No,No,"6-021 MEEHAN AVENUE, Far Rockaway",11691,Queens,-73.74135899,40.59886494,TEST-11691,
471692,2015,4.0,Dead,PYRUS CALLERYANA,CALLERY PEAR,No,No,No,No,"30 ANDREA PLACE, Staten Island",10303,Staten Island,-74.16654611,40.62525745,TEST-10303,
465084,2015,3.0,Dead,QUERCUS SHUMARDII,SCHUMARD'S OAK,No,No,No,No,"239 EAST KINGSBRIDGE ROAD, Bronx",10458,Bronx,-73.89394028,40.86479974,TEST-10458,
465086,2015,3.0,Dead,ROBINIA PSEUDOACACIA,BLACK LOCUST,No,No,No,No,"229 EAST KINGSBRIDGE ROAD, Bronx",10458,Bronx,-73.89383391,40.86505257,TEST-10458,
460070,2015,2.0,Dead,PYRUS CALLERYANA,CALLERY PEAR,No,No,No,No,"657 VAN SICLEN AVENUE, Brooklyn",11207,Brooklyn,-73.88774758,40.66350069,TEST-11207,
467330,2015,2.0,Dead,PYRUS CALLERYANA,CALLERY PEAR,No,No,No,No,"881 PARK AVENUE, Brooklyn",11206,Brooklyn,-73.93976872,40.69877045,TEST-11206,
467762,2015,2.0,Dead,PYRUS CALLERYANA,CALLERY PEAR,No,No,No,No,"120 EAST 184 STREET, Bronx",10468,Bronx,-73.89998646,40.85948076,TEST-10468,
456498,2015,5.0,Dead,PYRUS CALLERYANA,CALLERY PEAR,No,No,No,No,"190 BADEN PLACE, Staten Island",10306,Staten Island,-74.09134005,40.57214056,TEST-10306,
466275,2015,2.0,Dead,PYRUS CALLERYANA,CALLERY PEAR,No,No,No,No,"819 EAST 228 STREET, Bronx",10466,Bronx,-73.85564799,40.88879816,TEST-10466,
440256,2015,11.0,Dead,PYRUS CALLERYANA,CALLERY PEAR,No,No,No,No,"2120 VOORHIES AVENUE, Brooklyn",11235,Brooklyn,-73.94709141,40.5863923,TEST-11235,
446921,2015,2.0,Dead,PYRUS CALLERYANA,CALLERY PEAR,No,No,No,No,"343 BEACH 39 STREET, Far Rockaway",11691,Queens,-73.77172435,40.59579875,TEST-11691,
473180,2015,5.0,Dead,PYRUS CALLERYANA,CALLERY PEAR,No,No,No,No,"1286 EAST 229 STREET, Bronx",10466,Bronx,-73.84146167,40.8828659,TEST-10466,
464920,2015,2.0,Dead,TILIA TOMENTOSA,SILVER LINDEN,No,No,No,No,"8615 24 AVENUE, Brooklyn",11214,Brooklyn,-73.98955091,40.59898746,TEST-11214,
476737,2015,6.0,Dead,TILIA TOMENTOSA,SILVER LINDEN,No,No,No,No,"144 BOERUM STREET, Brooklyn",11206,Brooklyn,-73.94270878,40.70585786,TEST-11206,
467626,2015,22.0,Dead,PYRUS CALLERYANA,CALLERY PEAR,No,No,No,No,"221 VAN NAME AVENUE, Staten Island",10303,Staten Island,-74.15370762,40.63080501,TEST-10303,
462033,2015,3.0,Dead,TILIA TOMENTOSA,SILVER LINDEN,No,No,No,No,"390 GRANDVIEW AVENUE, Staten Island",10303,Staten Island,-74.16537722,40.63096217,TEST-10303,
424917,2015,6.0,Dead,PLATANUS X ACERIFOLIA,LONDON PLANETREE,No,No,No,No,"58-048 MASPETH AVENUE, Maspeth",11378,Queens,-73.91026027,40.72300556,TEST-11378,
467201,2015,3.0,Dead,PYRUS CALLERYANA,CALLERY PEAR,No,No,No,No,"904 PROSPECT AVENUE, Bronx",10459,Bronx,-73.90088694,40.82113238,TEST-10459,
447570,2015,4.0,Dead,PYRUS CALLERYANA,CALLERY PEAR,No,No,No,No,"675 WALTON AVENUE, Bronx",10451,Bronx,-73.9265777,40.82313949,TEST-10451,
441868,2015,7.0,Dead,PYRUS CALLERYANA,CALLERY PEAR,No,No,No,No,"231 SLATER BOULEVARD, Staten Island",10305,Staten Island,-74.08831549,40.58003044,TEST-10305,
449023,2015,5.0,Dead,QUERCUS PALUSTRIS,PIN OAK,No,No,No,No,"901 ANDERSON AVENUE, Bronx",10452,Bronx,-73.92843141,40.8305477,TEST-10452,
480048,2015,4.0,Dead,ACER CAMPESTRE,HEDGE MAPLE,No,No,No,No,"1328 PLIMPTON AVENUE, Bronx",10452,Bronx,-73.92404972,40.84094442,TEST-10452,
463813,2015,15.0,Dead,ULMUS AMERICANA,AMERICAN ELM,No,No,No,No,"10-045 MC BRIDE STREET, Far Rockaway",11691,Queens,-73.75801153,40.60346351,TEST-11691,
469567,2015,4.0,Dead,UNKNOWN,UNKNOWN,No,No,No,No,"418 BEACH 8 STREET, Far Rockaway",11691,Queens,-73.74328448,40.59963765,TEST-11691,
441867,2015,4.0,Dead,PLATANUS X ACERIFOLIA,LONDON PLANETREE,No,No,No,No,"233 SLATER BOULEVARD, Staten Island",10305,Staten Island,-74.08822773,40.57998533,TEST-10305,
447718,2015,2.0,Dead,QUERCUS PALUSTRIS,PIN OAK,No,No,No,No,"710 GERARD AVENUE, Bronx",10451,Bronx,-73.92691662,40.82400891,TEST-10451,
466015,2015,3.0,Dead,OSTRYA VIRGINIANA,AMERICAN HOPHORNBEAM,No,No,No,No,"243 LOCKMAN AVENUE, Staten Island",10303,Staten Island,-74.16181239,40.63105611,TEST-10303,
461533,2015,5.0,Dead,PLATANUS X ACERIFOLIA,LONDON PLANETREE,No,No,No,No,"930 FOX STREET, Bronx",10459,Bronx,-73.89380239,40.82046943,TEST-10459,
442824,2015,3.0,Dead,PLATANUS X ACERIFOLIA,LONDON PLANETREE,No,No,No,No,"920 EAST 167 STREET, Bronx",10459,Bronx,-73.89453915,40.82624729,TEST-10459,
467147,2015,3.0,Dead,PLATANUS X ACERIFOLIA,LONDON PLANETREE,No,No,No,No,"2011 CRESTON AVENUE, Bronx",10453,Bronx,-73.90574181,40.85181775,TEST-10453,
474978,2015,22.0,Dead,PLATANUS X ACERIFOLIA,LONDON PLANETREE,No,No,No,No,"4024 SECOR AVENUE, Bronx",10466,Bronx,-73.83187572,40.89150173,TEST-10466,
455448,2015,2.0,Dead,ACER PLATANOIDES,NORWAY MAPLE,No,No,No,No,"12-004 AUGUSTINA AVENUE, Far Rockaway",11691,Queens,-73.74773356,40.60925466,TEST-11691,
467631,2015,4.0,Dead,UNKNOWN,UNKNOWN,No,No,No,No,"249 VAN NAME AVENUE, Staten Island",10303,Staten Island,-74.1538454,40.62985672,TEST-10303,
467643,2015,4.0,Dead,ZELKOVA SERRATA,JAPANESE ZELKOVA,No,No,No,No,"315 VAN NAME AVENUE, Staten Island",10303,Staten Island,-74.15409052,40.62816964,TEST-10303,
455233,2015,8.0,Dead,PYRUS CALLERYANA,CALLERY PEAR,No,No,No,No,"402 EAST 156 STREET, Bronx",10451,Bronx,-73.91530726,40.82078683,TEST-10451,
465170,2015,2.0,Dead,QUERCUS VELUTINA,BLACK OAK,No,No,No,No,"5805 8 AVENUE, Brooklyn",11220,Brooklyn,-74.00846576,40.63641753,TEST-11220,
410611,2015,11.0,Dead,FRAXINUS PENNSYLVANICA,GREEN ASH,No,No,No,No,"165 EAST 62 STREET, New York",10065,Manhattan,-73.96588762,40.7637619,TEST-10065,
480229,2015,0.0,Dead,UNKNOWN,UNKNOWN,No,No,No,No,"1406 OGDEN AVENUE, Bronx",10452,Bronx,-73.92377764,40.84282314,TEST-10452,Unknown
476285,2015,6.0,Dead,PYRUS CALLERYANA,CALLERY PEAR,No,No,No,No,"56-047 195 STREET, Fresh Meadows",11365,Queens,-73.78223126,40.74437363,TEST-11365,
464051,2015,4.0,Dead,PYRUS CALLERYANA,CALLERY PEAR,No,No,No,No,"11-017 GIPSON STREET, Far Rockaway",11691,Queens,-73.75914161,40.60577284,TEST-11691,
434071,2015,2.0,Dead,PYRUS CALLERYANA,CALLERY PEAR,No,No,No,No,"10322 AVENUE L, Brooklyn",11236,Brooklyn,-73.88999864,40.64199005,TEST-11236,
467676,2015,2.0,Dead,ACER PLATANOIDES,NORWAY MAPLE,No,No,No,No,"616 JARVIS AVENUE, Far Rockaway",11691,Queens,-73.74085936,40.59848077,TEST-11691,
467172,2015,18.0,Dead,PYRUS CALLERYANA,CALLERY PEAR,No,No,No,No,"4 CONFEDERATION PLACE, Staten Island",10303,Staten Island,-74.15677641,40.62946975,TEST-10303,
448047,2015,2.0,Dead,ACER PLATANOIDES,NORWAY MAPLE,No,No,No,No,"1356 LORING AVENUE, Brooklyn",11208,Brooklyn,-73.86165097,40.66778653,TEST-11208,
469329,2015,1.0,Dead,UNKNOWN,UNKNOWN,No,No,No,No,"9-015 PLAINVIEW AVENUE, Far Rockaway",11691,Queens,-73.7450948,40.59737537,TEST-11691,
450430,2015,3.0,Dead,GLEDITSIA TRIACANTHOS ,HONEYLOCUST,No,No,No,No,"3073 PARK AVENUE, Bronx",10451,Bronx,-73.91904639,40.82299735,TEST-10451,
476651,2015,10.0,Dead,PYRUS CALLERYANA,CALLERY PEAR,No,No,No,No,"201 BOERUM STREET, Brooklyn",11206,Brooklyn,-73.94056222,40.70606042,TEST-11206,
469320,2015,3.0,Dead,PYRUS CALLERYANA,CALLERY PEAR,No,No,No,No,"1660 MONTGOMERY AVENUE, Bronx",10453,Bronx,-73.91960927,40.84924016,TEST-10453,
475022,2015,14.0,Dead,TILIA CORDATA,LITTLELEAF LINDEN,No,No,No,No,"301 EAST 193 STREET, Bronx",10458,Bronx,-73.89221376,40.8638348,TEST-10458,
477819,2015,3.0,Dead,TILIA CORDATA,LITTLELEAF LINDEN,No,No,No,No,"4366 VAN CORTLANDT PARK EAST, Bronx",10470,Bronx,-73.87209411,40.89958883,TEST-10470,
477019,2015,2.0,Dead,TILIA CORDATA,LITTLELEAF LINDEN,No,No,No,No,"1606 CASTLETON AVENUE, Staten Island",10302,Staten Island,-74.13684555,40.63601802,TEST-10302,
474835,2015,4.0,Dead,QUERCUS COCCINEA,SCARLET OAK,No,No,No,No,"3473 STEENWICK AVENUE, Bronx",10475,Bronx,-73.83081339,40.88256571,TEST-10475,
475180,2015,3.0,Dead,CERCIS RENIFORMIS,OKLAHOMA REDBUD,No,No,No,No,"2820 MARION AVENUE, Bronx",10458,Bronx,-73.88656603,40.86737851,TEST-10458,
447568,2015,7.0,Dead,QUERCUS COCCINEA,SCARLET OAK,No,No,No,No,"711 WALTON AVENUE, Bronx",10451,Bronx,-73.92646709,40.82333818,TEST-10451,
476712,2015,0.0,Dead,UNKNOWN,UNKNOWN,No,No,No,No,"1547 CASTLETON AVENUE, Staten Island",10302,Staten Island,-74.13449242,40.63598985,TEST-10302,Unknown
462021,2015,2.0,Dead,UNKNOWN,UNKNOWN,No,No,No,No,"24 SOUTH AVENUE, Staten Island",10303,Staten Island,-74.16610985,40.6397005,TEST-10303,
478505,2015,8.0,Dead,UNKNOWN,UNKNOWN,No,No,No,No,"400 WEST 253 STREET, Bronx",10471,Bronx,-73.90424834,40.90062362,TEST-10471,
474736,2015,3.0,Dead,ZELKOVA SERRATA,JAPANESE ZELKOVA,No,No,No,No,"4026 BOSTON ROAD, Bronx",10475,Bronx,-73.83213056,40.88447932,TEST-10475,
479727,2015,3.0,Dead,UNKNOWN,UNKNOWN,No,No,No,No,"15 FEATHERBED LANE, Bronx",10452,Bronx,-73.91475392,40.84568613,TEST-10452,
467123,2015,8.0,Dead,ZELKOVA SERRATA,JAPANESE ZELKOVA,No,No,No,No,"870 EAST 162 STREET, Bronx",10459,Bronx,-73.90012639,40.82130875,TEST-10459,
476738,2015,13.0,Dead,TILIA CORDATA,LITTLELEAF LINDEN,No,No,No,No,"160 BOERUM STREET, Brooklyn",11206,Brooklyn,-73.94225276,40.70590081,TEST-11206,
479275,2015,4.0,Dead,FRAXINUS PENNSYLVANICA,GREEN ASH,No,No,No,No,"23-061 FAR ROCKAWAY BOULEVARD, Far Rockaway",11691,Queens,-73.7600551,40.60074225,TEST-11691,
464004,2015,19.0,Dead,FRAXINUS PENNSYLVANICA,GREEN ASH,No,No,No,No,"576 WYONA STREET, Brooklyn",11207,Brooklyn,-73.89107832,40.66438395,TEST-11207,
474834,2015,5.0,Dead,FRAXINUS PENNSYLVANICA,GREEN ASH,No,No,No,No,"2188 REEDS MILL LANE, Bronx",10475,Bronx,-73.83091306,40.88253319,TEST-10475,
479748,2015,8.0,Dead,FRAXINUS PENNSYLVANICA,GREEN ASH,No,No,No,No,"54 FEATHERBED LANE, Bronx",10452,Bronx,-73.91658697,40.84536107,TEST-10452,
478930,2015,18.0,Dead,STYPHNOLOBIUM JAPONICUM,SOPHORA,No,No,No,No,"407 BEACH 20 STREET, Far Rockaway",11691,Queens,-73.7543029,40.59835176,TEST-11691,
448050,2015,2.0,Dead,ZELKOVA SERRATA,JAPANESE ZELKOVA,No,No,No,No,"941 ELDERT LANE, Brooklyn",11208,Brooklyn,-73.86216156,40.66770811,TEST-11208,
446999,2015,3.0,Dead,UNKNOWN,UNKNOWN,No,No,No,No,"331 BEACH 36 STREET, Far Rockaway",11691,Queens,-73.76904461,40.59609972,TEST-11691,
465915,2015,11.0,Dead,ACER PLATANOIDES,NORWAY MAPLE,No,No,No,No,"210-050 41 AVENUE, Bayside",11361,Queens,-73.77374111,40.76326922,TEST-11361,
442866,2015,4.0,Dead,FRAXINUS PENNSYLVANICA,GREEN ASH,No,No,No,No,"1116 HOE AVENUE, Bronx",10459,Bronx,-73.89083673,40.82644803,TEST-10459,
465051,2015,4.0,Dead,FRAXINUS PENNSYLVANICA,GREEN ASH,No,No,No,No,"814 RITTER PLACE, Bronx",10459,Bronx,-73.89809165,40.83085761,TEST-10459,
466755,2015,2.0,Dead,PRUNUS,CHERRY,No,No,No,No,"10 FAYETTE STREET, Brooklyn",11206,Brooklyn,-73.94020803,40.70001047,TEST-11206,
447571,2015,4.0,Dead,PRUNUS,CHERRY,No,No,No,No,"675 WALTON AVENUE, Bronx",10451,Bronx,-73.92661711,40.8230687,TEST-10451,
476652,2015,14.0,Dead,PRUNUS,CHERRY,No,No,No,No,"201 BOERUM STREET, Brooklyn",11206,Brooklyn,-73.9404176,40.70607398,TEST-11206,
469598,2015,10.0,Dead,ACER SACCHARINUM,SILVER MAPLE,No,No,No,No,"3045 VILLA AVENUE, Bronx",10468,Bronx,-73.88842471,40.87325799,TEST-10468,
476543,2015,4.0,Dead,ACER PLATANOIDES,NORWAY MAPLE,No,No,No,No,"76 MOORE STREET, Brooklyn",11206,Brooklyn,-73.94231588,40.70373378,TEST-11206,
463905,2015,4.0,Dead,ACER PLATANOIDES,NORWAY MAPLE,No,No,No,No,"2885 VALENTINE AVENUE, Bronx",10458,Bronx,-73.88902088,40.87010017,TEST-10458,
476599,2015,8.0,Dead,LIQUIDAMBAR STYRACIFLUA,SWEETGUM,No,No,No,No,"130 SEIGEL STREET, Brooklyn",11206,Brooklyn,-73.94131638,40.70464704,TEST-11206,
446973,2015,3.0,Dead,UNKNOWN,UNKNOWN,No,No,No,No,"1349 LORING AVENUE, Brooklyn",11208,Brooklyn,-73.86081823,40.66861437,TEST-11208,
473418,2015,7.0,Dead,ACER PLATANOIDES,NORWAY MAPLE,No,No,No,No,"3663 BOSTON ROAD, Bronx",10466,Bronx,-73.8416795,40.88020459,TEST-10466,
446346,2015,4.0,Dead,ACER PLATANOIDES 'CRIMSON KING',CRIMSON KING MAPLE,No,No,No,No,"403 BEACH 36 STREET, Far Rockaway",11691,Queens,-73.76898808,40.59625831,TEST-11691,
467202,2015,3.0,Dead,ACER PLATANOIDES,NORWAY MAPLE,No,No,No,No,"904 PROSPECT AVENUE, Bronx",10459,Bronx,-73.90090547,40.8210879,TEST-10459,
441869,2015,2.0,Dead,QUERCUS ACUTISSIMA,SAWTOOTH OAK,No,No,No,No,"223 SLATER BOULEVARD, Staten Island",10305,Staten Island,-74.08849698,40.58012373,TEST-10305,
461703,2015,2.0,Dead,ACER PLATANOIDES,NORWAY MAPLE,No,No,No,No,"65 BEAVER STREET, Brooklyn",11206,Brooklyn,-73.93673061,40.69963042,TEST-11206,
448049,2015,2.0,Dead,PYRUS CALLERYANA,CALLERY PEAR,No,No,No,No,"1356 LORING AVENUE, Brooklyn",11208,Brooklyn,-73.86202305,40.66772938,TEST-11208,
471691,2015,4.0,Dead,PYRUS CALLERYANA,CALLERY PEAR,No,No,No,No,"28 ANDREA PLACE, Staten Island",10303,Staten Island,-74.16650497,40.62543304,TEST-10303,
473929,2015,3.0,Dead,ACER PLATANOIDES,NORWAY MAPLE,No,No,No,No,"1800 DAVIDSON AVENUE, Bronx",10453,Bronx,-73.91241749,40.84932157,TEST-10453,
452217,2015,4.0,Dead,GINKGO BILOBA,GINKGO,No,No,No,No,"800 GRAND CONCOURSE, Bronx",10451,Bronx,-73.92280892,40.82509784,TEST-10451,
450552,2015,9.0,Dead,GLEDITSIA TRIACANTHOS ,HONEYLOCUST,No,No,No,No,"334 LINCOLN AVENUE, Brooklyn",11208,Brooklyn,-73.86884664,40.68192668,TEST-11208,
450756,2015,3.0,Dead,MORUS,MULBERRY,No,No,No,No,"971 CRESCENT STREET, Brooklyn",11208,Brooklyn,-73.866969,40.66351879,TEST-11208,
433129,2015,4.0,Dead,TILIA CORDATA,LITTLELEAF LINDEN,No,No,No,No,"1908 PROSPECT AVENUE, Bronx",10457,Bronx,-73.88989717,40.8434531,TEST-10457,
476600,2015,9.0,Dead,ULMUS PARVIFOLIA,CHINESE ELM,No,No,No,No,"125 SEIGEL STREET, Brooklyn",11206,Brooklyn,-73.94156409,40.70462381,TEST-11206,
473703,2015,12.0,Dead,GLEDITSIA TRIACANTHOS ,HONEYLOCUST,No,No,No,No,"271 SOUTH STREET, New York",10002,Manhattan,-73.9882085,40.71038426,TEST-10002,
454132,2015,2.0,Dead,STYPHNOLOBIUM JAPONICUM,SOPHORA,No,No,No,No,"157 PIONEER STREET, Brooklyn",11231,Brooklyn,-74.01156446,40.67933595,TEST-11231,
449809,2015,2.0,Dead,PRUNUS,CHERRY,No,No,No,No,"31-028 47 AVENUE, Long Island City",11101,Queens,-73.93410523,40.74261684,TEST-11101,
434012,2015,16.0,Dead,CORNUS FLORIDA,FLOWERING DOGWOOD,No,No,No,No,"182 CRYSTAL STREET, Brooklyn",11208,Brooklyn,-73.87422227,40.67427793,TEST-11208,
467647,2015,4.0,Dead,QUERCUS PALUSTRIS,PIN OAK,No,No,No,No,"341 VAN NAME AVENUE, Staten Island",10303,Staten Island,-74.15419999,40.62741614,TEST-10303,
467162,2015,5.0,Dead,CORNUS FLORIDA,FLOWERING DOGWOOD,No,No,No,No,"2361 MORRIS AVENUE, Bronx",10468,Bronx,-73.90093017,40.85985002,TEST-10468,
466075,2015,2.0,Dead,STYPHNOLOBIUM JAPONICUM,SOPHORA,No,No,No,No,"166 UNION AVENUE, Staten Island",10303,Staten Island,-74.15819013,40.63243107,TEST-10303,
474833,2015,3.0,Dead,STYPHNOLOBIUM JAPONICUM,SOPHORA,No,No,No,No,"2188 REEDS MILL LANE, Bronx",10475,Bronx,-73.83100941,40.88250174,TEST-10475,
467145,2015,2.0,Dead,TAXODIUM DISTICHUM,BALD CYPRESS,No,No,No,No,"2031 CRESTON AVENUE, Bronx",10453,Bronx,-73.9053851,40.85220842,TEST-10453,
473855,2015,20.0,Dead,METASEQUOIA GLYPTOSTROBOIDES,DAWN REDWOOD,No,No,No,No,"1721 GRAND AVENUE, Bronx",10453,Bronx,-73.91394957,40.84881434,TEST-10453,
478936,2015,2.0,Dead,CELTIS OCCIDENTALIS,COMMON HACKBERRY,No,No,No,No,"520 BEACH 20 STREET, Far Rockaway",11691,Queens,-73.75404852,40.59988979,TEST-11691,
467646,2015,3.0,Dead,PLATANUS X ACERIFOLIA,LONDON PLANETREE,No,No,No,No,"339 VAN NAME AVENUE, Staten Island",10303,Staten Island,-74.15418216,40.6275389,TEST-10303,
469369,2015,1.0,Dead,PLATANUS X ACERIFOLIA,LONDON PLANETREE,No,No,No,No,"315 BEACH 9 STREET, Far Rockaway",11691,Queens,-73.74465089,40.59795342,TEST-11691,
464087,2015,3.0,Dead,ACER SACCHARINUM,SILVER MAPLE,No,No,No,No,"526 BEACH 20 STREET, Far Rockaway",11691,Queens,-73.75379225,40.60021879,TEST-11691,
477240,2015,3.0,Dead,PRUNUS SEROTINA,BLACK CHERRY,No,No,No,No,"3118 AVENUE W, Brooklyn",11229,Brooklyn,-73.93324992,40.59652246,TEST-11229,
468223,2015,7.0,Dead,PLATANUS X ACERIFOLIA,LONDON PLANETREE,No,No,No,No,"1000 EAST 229 STREET, Bronx",10466,Bronx,-73.84999512,40.88772845,TEST-10466,
460353,2015,2.0,Dead,PLATANUS X ACERIFOLIA,LONDON PLANETREE,No,No,No,No,"497 SNEDIKER AVENUE, Brooklyn",11207,Brooklyn,-73.89935741,40.66273022,TEST-11207,
465341,2015,5.0,Dead,PRUNUS CERASIFERA,PURPLE-LEAF PLUM,No,No,No,No,"10-039 GIPSON STREET, Far Rockaway",11691,Queens,-73.75941313,40.60344501,TEST-11691,
455734,2015,4.0,Dead,PLATANUS X ACERIFOLIA,LONDON PLANETREE,No,No,No,No,"1146 EAST 229 DRIVE NORTH, Bronx",10466,Bronx,-73.84472588,40.88715428,TEST-10466,
468434,2015,2.0,Dead,CERCIS CANADENSIS,EASTERN REDBUD,No,No,No,No,"188 ELLERY STREET, Brooklyn",11206,Brooklyn,-73.94533157,40.6987653,TEST-11206,
479459,2015,4.0,Dead,CERCIS CANADENSIS,EASTERN REDBUD,No,No,No,No,"240 BEACH 12 STREET, Far Rockaway",11691,Queens,-73.74615123,40.5967945,TEST-11691,
461050,2015,3.0,Dead,CERCIS CANADENSIS,EASTERN REDBUD,No,No,No,No,"354 EAST 194 STREET, Bronx",10458,Bronx,-73.89075974,40.863857,TEST-10458,
468431,2015,2.0,Dead,TILIA CORDATA,LITTLELEAF LINDEN,No,No,No,No,"216 ELLERY STREET, Brooklyn",11206,Brooklyn,-73.94435743,40.69887767,TEST-11206,
475334,2015,3.0,Dead,TILIA CORDATA,LITTLELEAF LINDEN,No,No,No,No,"2642 DECATUR AVENUE, Bronx",10458,Bronx,-73.88967673,40.86390868,TEST-10458,
431811,2015,0.0,Dead,PLATANUS X ACERIFOLIA,LONDON PLANETREE,No,No,No,No,"59 WANDELL AVENUE, Staten Island",10304,Staten Island,-74.08989868,40.61542677,TEST-10304,
479125,2015,5.0,Dead,PLATANUS X ACERIFOLIA,LONDON PLANETREE,No,No,No,No,"2678 BAILEY AVENUE, Bronx",10468,Bronx,-73.90683594,40.87106803,TEST-10468,
476547,2015,2.0,Dead,PLATANUS X ACERIFOLIA,LONDON PLANETREE,No,No,No,No,"108 MOORE STREET, Brooklyn",11206,Brooklyn,-73.9411785,40.70384178,TEST-11206,
455419,2015,0.0,Dead,PLATANUS X ACERIFOLIA,LONDON PLANETREE,No,No,No,No,"182 KISWICK STREET, Staten Island",10306,Staten Island,-74.09576831,40.57454126,TEST-10306,
481129,2015,5.0,Dead,PLATANUS X ACERIFOLIA,LONDON PLANETREE,No,No,No,No,"660 FOX STREET, Bronx",10455,Bronx,-73.90026479,40.81407549,TEST-10455,
480268,2015,2.0,Dead,PLATANUS X ACERIFOLIA,LONDON PLANETREE,No,No,No,No,"310 BEACH 32 STREET, Far Rockaway",11691,Queens,-73.76451477,40.59599864,TEST-11691,
478833,2015,5.0,Dead,PRUNUS,CHERRY,No,No,No,No,"1180 OGDEN AVENUE, Bronx",10452,Bronx,-73.92670591,40.83747271,TEST-10452,
464767,2015,3.0,Dead,PLATANUS X ACERIFOLIA,LONDON PLANETREE,No,No,No,No,"401 NETHERLAND AVENUE, Staten Island",10303,Staten Island,-74.16265225,40.62928741,TEST-10303,
466813,2015,2.0,Dead,TILIA CORDATA,LITTLELEAF LINDEN,No,No,No,No,"931 ALBANY AVENUE, Brooklyn",11203,Brooklyn,-73.93891818,40.65090831,TEST-11203,
479453,2015,4.0,Dead,PLATANUS X ACERIFOLIA,LONDON PLANETREE,No,No,No,No,"166 WEST 170 STREET, Bronx",10452,Bronx,-73.92534545,40.84163912,TEST-10452,
464468,2015,1.0,Dead,TILIA CORDATA,LITTLELEAF LINDEN,No,No,No,No,"497 TYSENS LANE, Staten Island",10306,Staten Island,-74.11779203,40.56486156,TEST-10306,
461051,2015,3.0,Dead,PLATANUS X ACERIFOLIA,LONDON PLANETREE,No,No,No,No,"361 EAST 194 STREET, Bronx",10458,Bronx,-73.89060719,40.86377326,TEST-10458,
464075,2015,3.0,Dead,PLATANUS X ACERIFOLIA,LONDON PLANETREE,No,No,No,No,"1381 INTERVALE AVENUE, Bronx",10459,Bronx,-73.89272913,40.83212474,TEST-10459,
477018,2015,2.0,Dead,PLATANUS X ACERIFOLIA,LONDON PLANETREE,No,No,No,No,"1610 CASTLETON AVENUE, Staten Island",10302,Staten Island,-74.13701843,40.63602161,TEST-10302,
459047,2015,2.0,Dead,TILIA CORDATA,LITTLELEAF LINDEN,No,No,No,No,"495 HEGEMAN AVENUE, Brooklyn",11207,Brooklyn,-73.89304282,40.65938697,TEST-11207,
480975,2015,3.0,Dead,ULMUS AMERICANA,AMERICAN ELM,No,No,No,No,"34 BEACH 28 STREET, Far Rockaway",11691,Queens,-73.76090669,40.59371066,TEST-11691,
475347,2015,3.0,Dead,GINKGO BILOBA,GINKGO,No,No,No,No,"2616 DECATUR AVENUE, Bronx",10458,Bronx,-73.89026141,40.86328134,TEST-10458,
464186,2015,4.0,Dead,TILIA CORDATA,LITTLELEAF LINDEN,No,No,No,No,"749 JENNINGS STREET, Bronx",10456,Bronx,-73.89793233,40.83188774,TEST-10456,
464088,2015,2.0,Dead,TILIA CORDATA,LITTLELEAF LINDEN,No,No,No,No,"526 BEACH 20 STREET, Far Rockaway",11691,Queens,-73.75376515,40.60032327,TEST-11691,
443382,2015,6.0,Dead,GLEDITSIA TRIACANTHOS ,HONEYLOCUST,No,No,No,No,"401 EAST 136 STREET, Bronx",10454,Bronx,-73.92344393,40.80769833,TEST-10454,
450713,2015,4.0,Dead,PYRUS CALLERYANA,CALLERY PEAR,No,No,No,No,"12 WEST 31 STREET, New York",10001,Manhattan,-73.98669122,40.74690188,TEST-10001,
443082,2015,3.0,Dead,PYRUS CALLERYANA,CALLERY PEAR,No,No,No,No,"197 BROOK AVENUE, Bronx",10454,Bronx,-73.92011993,40.80646325,TEST-10454,
451181,2015,10.0,Dead,PYRUS CALLERYANA,CALLERY PEAR,No,No,No,No,"891 SHERMAN AVENUE, Bronx",10451,Bronx,-73.91918731,40.82698635,TEST-10451,
410801,2015,3.0,Dead,PYRUS CALLERYANA,CALLERY PEAR,No,No,No,No,"237 HIMROD STREET, Brooklyn",11237,Brooklyn,-73.91959915,40.7004282,TEST-11237,
476422,2015,2.0,Dead,ACER PLATANOIDES,NORWAY MAPLE,No,No,No,No,"56-036 196 PLACE, Fresh Meadows",11365,Queens,-73.78074992,40.7451574,TEST-11365,
464478,2015,3.0,Dead,QUERCUS ACUTISSIMA,SAWTOOTH OAK,No,No,No,No,"134 HOLLAND AVENUE, Staten Island",10303,Staten Island,-74.17126823,40.63694888,TEST-10303,
464780,2015,2.0,Dead,FRAXINUS PENNSYLVANICA,GREEN ASH,No,No,No,No,"862 EAST 230 STREET, Bronx",10466,Bronx,-73.85340628,40.88964812,TEST-10466,
464312,2015,3.0,Dead,FRAXINUS PENNSYLVANICA,GREEN ASH,No,No,No,No,"1328 LOUIS NINE BOULEVARD, Bronx",10459,Bronx,-73.89229208,40.83111894,TEST-10459,
476353,2015,4.0,Dead,ACER PLATANOIDES,NORWAY MAPLE,No,No,No,No,"4565 BROADWAY, New York",10033,Manhattan,-73.9350363,40.86123929,TEST-10033,
460036,2015,5.0,Dead,ACER PLATANOIDES,NORWAY MAPLE,No,No,No,No,"14-001 MINTON STREET, Far Rockaway",11691,Queens,-73.74846497,40.60921541,TEST-11691,
460865,2015,2.0,Dead,ACER PLATANOIDES,NORWAY MAPLE,No,No,No,No,"557 SNEDIKER AVENUE, Brooklyn",11207,Brooklyn,-73.89883191,40.66116694,TEST-11207,
481721,2015,2.0,Dead,TILIA TOMENTOSA,SILVER LINDEN,No,No,No,No,"301 DECKER AVENUE, Staten Island",10302,Staten Island,-74.13955214,40.62622075,TEST-10302,
444187,2015,2.0,Dead,PYRUS CALLERYANA,CALLERY PEAR,No,No,No,No,"432 WORTMAN AVENUE, Brooklyn",11207,Brooklyn,-73.877805,40.65994035,TEST-11207,
478824,2015,3.0,Dead,PYRUS CALLERYANA,CALLERY PEAR,No,No,No,No,"267 BEACH 14 STREET, Far Rockaway",11691,Queens,-73.74812452,40.59746306,TEST-11691,
460863,2015,2.0,Dead,ACER PLATANOIDES,NORWAY MAPLE,No,No,No,No,"431 NEWPORT STREET, Brooklyn",11207,Brooklyn,-73.89880322,40.66105375,TEST-11207,
481891,2015,5.0,Dead,ACER PLATANOIDES,NORWAY MAPLE,No,No,No,No,"1194 GERARD AVENUE, Bronx",10452,Bronx,-73.92051194,40.8351688,TEST-10452,
481623,2015,2.0,Dead,ACER PLATANOIDES,NORWAY MAPLE,No,No,No,No,"1050 PUTNAM AVENUE, Brooklyn",11221,Brooklyn,-73.92009937,40.68741048,TEST-11221,
468435,2015,2.0,Dead,ACER PLATANOIDES,NORWAY MAPLE,No,No,No,No,"188 ELLERY STREET, Brooklyn",11206,Brooklyn,-73.94535296,40.69876284,TEST-11206,
482839,2015,4.0,Dead,PYRUS CALLERYANA,CALLERY PEAR,No,No,No,No,"51-017 ROCKAWAY BEACH BOULEVARD, Far Rockaway",11691,Queens,-73.78211375,40.59311185,TEST-11691,
481092,2015,5.0,Dead,ACER PLATANOIDES,NORWAY MAPLE,No,No,No,No,"374 ARLENE STREET, Staten Island",10314,Staten Island,-74.16530968,40.60851039,TEST-10314,
473003,2015,3.0,Dead,ACER PLATANOIDES,NORWAY MAPLE,No,No,No,No,"69 DIKEMAN STREET, Brooklyn",11231,Brooklyn,-74.01237613,40.67592222,TEST-11231,
461153,2015,2.0,Dead,ACER PLATANOIDES,NORWAY MAPLE,No,No,No,No,"576 NEW JERSEY AVENUE, Brooklyn",11207,Brooklyn,-73.89319556,40.66521339,TEST-11207,
474993,2015,3.0,Dead,PRUNUS CERASIFERA,PURPLE-LEAF PLUM,No,No,No,No,"1 ADA DRIVE, Staten Island",10303,Staten Island,-74.15426876,40.61948995,TEST-10303,
480500,2015,6.0,Dead,FRAXINUS PENNSYLVANICA,GREEN ASH,No,No,No,No,"75 FIELDSTONE ROAD, Staten Island",10314,Staten Island,-74.16552335,40.61343312,TEST-10314,
482237,2015,19.0,Dead,ACER PLATANOIDES,NORWAY MAPLE,No,No,No,No,"78-007 41 AVENUE, Elmhurst",11373,Queens,-73.88683834,40.74571999,TEST-11373,
479072,2015,4.0,Dead,FRAXINUS PENNSYLVANICA,GREEN ASH,No,No,No,No,"866 WESTCHESTER AVENUE, Bronx",10459,Bronx,-73.90026558,40.82022378,TEST-10459,
480769,2015,2.0,Dead,FRAXINUS PENNSYLVANICA,GREEN ASH,No,No,No,No,"930 HALSEY STREET, Brooklyn",11233,Brooklyn,-73.9169994,40.68562769,TEST-11233,
480967,2015,4.0,Dead,PYRUS CALLERYANA,CALLERY PEAR,No,No,No,No,"145 BEACH 27 STREET, Far Rockaway",11691,Queens,-73.76111699,40.59266343,TEST-11691,
481718,2015,4.0,Dead,ACER SACCHARINUM,SILVER MAPLE,No,No,No,No,"71 EAST 167 STREET, Bronx",10452,Bronx,-73.91977318,40.83529109,TEST-10452,
464309,2015,5.0,Dead,ACER SACCHARINUM,SILVER MAPLE,No,No,No,No,"1321 LOUIS NINE BOULEVARD, Bronx",10459,Bronx,-73.89235968,40.83128175,TEST-10459,
450027,2015,4.0,Dead,ACER PLATANOIDES,NORWAY MAPLE,No,No,No,No,"834 CONCOURSE VILLAGE EAST, Bronx",10451,Bronx,-73.91888066,40.82463685,TEST-10451,
479779,2015,3.0,Dead,ACER PLATANOIDES,NORWAY MAPLE,No,No,No,No,"18-002 GATEWAY BOULEVARD, Far Rockaway",11691,Queens,-73.75081148,40.60052311,TEST-11691,
469918,2015,3.0,Dead,PYRUS CALLERYANA,CALLERY PEAR,No,No,No,No,"3214 3 AVENUE, Bronx",10456,Bronx,-73.90909955,40.82313913,TEST-10456,
480951,2015,3.0,Dead,PYRUS CALLERYANA,CALLERY PEAR,No,No,No,No,"167 BEACH 29 STREET, Far Rockaway",11691,Queens,-73.76168777,40.59388077,TEST-11691,
470139,2015,5.0,Dead,TILIA TOMENTOSA,SILVER LINDEN,No,No,No,No,"955 TINTON AVENUE, Bronx",10456,Bronx,-73.90307242,40.82311285,TEST-10456,
455342,2015,3.0,Dead,ACER PLATANOIDES,NORWAY MAPLE,No,No,No,No,"3108 3 AVENUE, Bronx",10451,Bronx,-73.9116729,40.82195998,TEST-10451,
482918,2015,2.0,Dead,ACER PLATANOIDES,NORWAY MAPLE,No,No,No,No,"2260 WEBSTER AVENUE, Bronx",10457,Bronx,-73.89577534,40.85573541,TEST-10457,
480765,2015,3.0,Dead,ACER PLATANOIDES,NORWAY MAPLE,No,No,No,No,"627 FOX STREET, Bronx",10455,Bronx,-73.90185104,40.81392305,TEST-10455,
480745,2015,3.0,Dead,PYRUS CALLERYANA,CALLERY PEAR,No,No,No,No,"680 BECK STREET, Bronx",10455,Bronx,-73.90089298,40.81480056,TEST-10455,
